"Electorate Number #","Electorate Name","Voting Place ID","Voting Place Suburb","Voting Place Address","NZTM2000 Northing","NZTM2000 Easting","WGS84 Latitude","WGS84 Longitude"
1,"Auckland Central",98,"Auckland City","Auckland High Court, corner Waterloo Quadrant & Parliament Street",5920405.712,1757941.612,-36.84907256,174.7715268
1,"Auckland Central",3978,"Auckland City","AUSA Club Space, The Quad, Auckland University",5920124.316,1757760.819,-36.85163823,174.7695583
1,"Auckland Central",3855,"Auckland City","AUT Wellesley Campus, Building WA, Conference Room, Gate 2, 55 Wellesley Street",5919970.824,1757495.544,-36.8530655,174.7666159
1,"Auckland Central",100,"Auckland City","Liston House, 30-32 Hobson Street",5920750.11,1757162.971,-36.84609921,174.7627258
1,"Auckland Central",101,"Auckland City","Methodist Church Wesley Hall, 78 Pitt Street",5919539.57,1756847.451,-36.85705907,174.7594385
1,"Auckland Central",3805,"Freemans Bay","Freemans Bay Community Centre Auditorium, 52 Hepburn Street",5920008.088,1756132.563,-36.85295593,174.7513263
1,"Auckland Central",3652,"Grafton","Auckland City Hospital, Foyer, 2 Park Road",5919078.437,1757755.306,-36.86106287,174.7697138
1,"Auckland Central",3147,"Grafton","St David's Presbyterian Church Hall, 70 Khyber Pass Road",5918747.323,1757190.022,-36.86414056,174.7634437
1,"Auckland Central",3150,"Great Barrier Island","Great Barrier Island Community Health Centre, 80 Hector Sanderson Road",5986261.979,1821518.879,-36.24316521,175.4651956
1,"Auckland Central",106,"Great Barrier Island","Okiwi School, Aotea Road",5996213.921,1815397.21,-36.15490483,175.3943915
1,"Auckland Central",107,"Great Barrier Island","Port Fitzroy Aotea Centre (Nurses Cottage)",5995162.571,1812401.609,-36.16503647,175.3614017
1,"Auckland Central",108,"Great Barrier Island","Tryphena Mulberry Grove School, Shoal Bay Road",5978485.983,1823982.831,-36.31263529,175.4948217
1,"Auckland Central",112,"Grey Lynn","Richmond Road School, 113 Richmond Road",5919671.027,1755096.331,-36.85616367,174.7397767
1,"Auckland Central",114,"Herne Bay","Bayfield School, 2 Clifton Road",5920619.461,1754363.485,-36.8477378,174.7313667
1,"Auckland Central",115,"Herne Bay","Marist School, 82 Kelmarna Avenue",5920223.238,1754730.249,-36.851248,174.7355594
1,"Auckland Central",116,"Herne Bay","St Stephen's Presbyterian Church Hall, 65 Jervois Road",5920863.307,1755287.899,-36.84538919,174.7416809
1,"Auckland Central",3620,"Mechanics Bay","Auckland Marine Rescue Centre, 3 Solent Street",5920580.758,1759453.149,-36.84724152,174.7884365
1,"Auckland Central",120,"Newton","Unitarian Church Hall, 1A Ponsonby Road",5919364.165,1756143.861,-36.85875609,174.7515854
1,"Auckland Central",124,"Ponsonby","All Saints Anglican Church, 284 Ponsonby Road",5920398.716,1755469.826,-36.84954547,174.7438156
1,"Auckland Central",4033,"Ponsonby","Leys Institute Hall, Lecture Room, 20 St Marys Road",5920710.768,1755560.59,-36.8467188,174.7447693
1,"Auckland Central",127,"Ponsonby","Ponsonby Primary School, 44 Curran Street",5921233.803,1755055.177,-36.84208904,174.7389962
1,"Auckland Central",125,"Ponsonby","Sacred Heart Parish Hall, 24 Vermont Street",5919942.697,1755440.755,-36.8536592,174.743583
1,"Auckland Central",2896,"Ponsonby","St Mary's College, 11 New Street",5920809.604,1755926.961,-36.84576787,174.7488565
1,"Auckland Central",2895,"Ponsonby","St Paul's College (Library), 183 Richmond Road",5919864.102,1754912.637,-36.85445411,174.7376776
1,"Auckland Central",130,"Waiheke Island","Matiatia Oneroa Ratepayers - Morra Hall, 115 Ocean View Road",5927423.615,1778960.503,-36.78210086,175.0055075
1,"Auckland Central",134,"Waiheke Island","Omiha Memorial Hall, 2 Glen Brook Road",5923218.233,1783646.334,-36.81909001,175.0590029
1,"Auckland Central",131,"Waiheke Island","Onetangi Residents Association Hall, corner Waiheke Road & Third Avenue",5926348.985,1785870.916,-36.79045144,175.0831651
1,"Auckland Central",4042,"Waiheke Island","Ostend Memorial Hall, 76 Ostend Road",5925721.798,1782666.167,-36.79672527,175.047419
1,"Auckland Central",135,"Waiheke Island","Palm Beach Hall, 64 Palm Road",5927422.442,1782236.551,-36.78148693,175.0421996
1,"Auckland Central",3829,"Waiheke Island","Surfdale Community Hall, 6 Hamilton Road",5926262.633,1780420.94,-36.79228329,175.0221395
1,"Auckland Central",4040,"Waiheke Island","Waiheke High School, 11 Donald Bruce Road",5925157.219,1780878.531,-36.80215477,175.0275278
1,"Auckland Central",3644,"Westmere","Hawke Sea Scouts Hall, 55 West End Road",5920331.412,1753830.111,-36.85042025,174.7254451
2,"Bay of Plenty",184,"Kaimai","Kaimai School, 1853 State Highway 29",5810620.468,1866291.614,-37.81300171,176.0250082
2,"Bay of Plenty",406,"Matakana Island","Te Kura O Te Moutere O Matakana, 183 Opureora Road",5833009.05,1872089.696,-37.60979011,176.0824199
2,"Bay of Plenty",187,"Matapihi","Te Kura o Matapihi, 398 Matapihi Road",5822982.31,1881650.842,-37.69714727,176.1944508
2,"Bay of Plenty",189,"Maungatapu","Maungatapu Free Kindergarten, 187 Te Hono Street",5820993.154,1880576.367,-37.71537788,176.1830478
2,"Bay of Plenty",190,"Maungatapu","Maungatapu Primary School, 164 Maungatapu Road",5820297.295,1879734.925,-37.72189748,176.1737828
2,"Bay of Plenty",3400,"Mount Maunganui","Arataki Community Centre, Zambuk Way (off Grenada Street)",5825296.7,1884749.662,-37.67536304,176.2286424
2,"Bay of Plenty",2268,"Mount Maunganui","Arataki School, 4 Kaimanawa Street",5825287.477,1884968.351,-37.67537816,176.231122
2,"Bay of Plenty",2271,"Mount Maunganui","Mt Maunganui Intermediate School, 21 Links Avenue",5826424.46,1883273.25,-37.66567098,176.2114884
2,"Bay of Plenty",409,"Omokoroa","Omokoroa No. 1 School, 11 Emeny Road",5826165.835,1867375.253,-37.67276706,176.0315848
2,"Bay of Plenty",410,"Omokoroa","Omokoroa Point School, 37 Hamurana Road",5830235.183,1868468.141,-37.6358211,176.0424641
2,"Bay of Plenty",192,"Oropi","Oropi School, 1334 Oropi Road",5807336.577,1878004.408,-37.83906451,176.1591417
2,"Bay of Plenty",414,"Pahoia","Pahoia School, 29 Esdaile Road",5828213.023,1864322.027,-37.65522464,175.9962686
2,"Bay of Plenty",3802,"Papamoa","Golden Sands Primary School, 26 Golden Sands Drive",5820072.401,1894503.125,-37.71929362,176.3411741
2,"Bay of Plenty",196,"Papamoa","Papamoa Primary School, 312 Dickson Road",5821201.343,1892134.447,-37.70989335,176.3138896
2,"Bay of Plenty",3947,"Papamoa","Shop 32, Palm Beach Plaza, 7 Gravatt Road",5822552.165,1889385.978,-37.69860976,176.2822223
2,"Bay of Plenty",197,"Papamoa","Tahatai Coast School, 45 Evans Road",5823348.187,1887451.383,-37.69205504,176.2599988
2,"Bay of Plenty",4039,"Papamoa","Te Akau ki Papamoa Primary School, 29 Doncaster Drive",5821637.371,1889916.556,-37.70667393,176.2885951
2,"Bay of Plenty",201,"Pyes Pa","Pyes Pa School, 978 Pyes Pa Road",5809658.83,1875119.125,-37.81903951,176.1255169
2,"Bay of Plenty",420,"Te Puna","Te Puna Memorial Hall, Te Puna Road",5823510.983,1870910.82,-37.69562499,176.0726061
2,"Bay of Plenty",421,"Te Puna","Te Puna School, 225 Te Puna Road",5825715.116,1871343.463,-37.67565911,176.0766862
2,"Bay of Plenty",208,"Welcome Bay","Baden Powell Hall, 39 Welcome Bay Road",5819712.814,1879687.85,-37.72717187,176.1734741
2,"Bay of Plenty",2901,"Welcome Bay","Selwyn Ridge Primary School, 20 Holmburn Street",5819022.572,1880448.5,-37.73315106,176.1823587
2,"Bay of Plenty",209,"Welcome Bay","Welcome Bay School, 309 Welcome Bay Road",5819611.056,1881720.429,-37.72746478,176.1965433
2,"Bay of Plenty",2919,"Whakamarama","Whakamarama Public Hall, 469 Whakamarama Road",5821375.407,1864012.081,-37.7168595,175.9952358
3,"Botany",4051,"Botany","Elim Christian College-Junior Campus, 94 Golfland Drive",5911896.511,1769968.441,-36.9236506,174.908266
3,"Botany",1105,"Botany Downs","Botany Downs Primary School, 35 Mirrabooka Avenue",5913153.888,1771286.677,-36.91208366,174.922774
3,"Botany",3667,"Botany Downs","Botany Downs Secondary College, 575 Chapel Road",5910737.505,1770584.507,-36.93398135,174.9154405
3,"Botany",3689,"Botany Downs","Elim Christian Centre, 159 Botany Road",5912965.635,1770660.057,-36.91389335,174.9157859
3,"Botany",3160,"Botany Downs","St Columba Presbyterian Church, 480 Ti Rakau Drive",5911389.704,1770186.211,-36.92817739,174.9108237
3,"Botany",3687,"Botany South","Sancta Maria College, 319 Te Irirangi Drive",5908024.428,1769525.892,-36.95861595,174.9041681
3,"Botany",3775,"Burswood","East City Wesleyan Church, 219 Burswood Drive",5911805.852,1768760.401,-36.92468448,174.8947301
3,"Botany",2879,"Chapel Downs","Chapel Downs Primary School, 170 Dawson Road",5905649.957,1769275.573,-36.98005379,174.9018902
3,"Botany",1638,"Cockle Bay","Cockle Bay Playcentre, 17 Pah Road",5914252.592,1773628.459,-36.90175676,174.948796
3,"Botany",458,"Dannemora","Point View Primary School, 25 Kilkenny Drive",5911620.65,1771161.735,-36.92592001,174.9217189
3,"Botany",2905,"Dannemora","Willowbank School, 56 Middlefield Drive",5909083.228,1770438.786,-36.94891189,174.914178
3,"Botany",3270,"Flat Bush","Baverstock Oaks School, 21 Baverstock Road",5908317.125,1770379.399,-36.95582481,174.9136841
3,"Botany",1109,"Flat Bush","Dawson Road Primary School, 15 Haumia Way",5906322.333,1768454.261,-36.97414344,174.8925169
3,"Botany",1126,"Flat Bush","Kia Aroha College, 51 Othello Drive",5905525.332,1768447.824,-36.9813252,174.8926225
3,"Botany",3577,"Highland Park","Rockabye Early Learning Centre, 122 Aviemore Drive",5913527.973,1769834.949,-36.90897592,174.906402
3,"Botany",1639,"Howick","Cockle Bay School, 24 Sandspit Road",5913903.862,1772768.158,-36.90505657,174.9392246
3,"Botany",3410,"Meadowlands","Auckland Fiji Methodist Church, 128 Whitford Road",5912850.952,1771816.277,-36.91471659,174.9287847
3,"Botany",1319,"Northpark","Our Lady Star of the Sea School, 14 Oakridge Way",5912236.996,1771336.507,-36.92033532,174.9235406
3,"Botany",907,"Shelly Park","Shelly Park School, 11-13 Sunnyview Avenue",5913546.87,1773269.873,-36.90818081,174.9449348
3,"Botany",3688,"Somerville","Somerville Intermediate School, 39 Somerville Road",5913010.832,1772752.949,-36.91310502,174.9392577
4,"Christchurch Central",3543,"Addington","Kidsfirst Kindergarten, 366 Selwyn Street",5178527.76,1569486.116,-43.54557566,172.6222759
4,"Christchurch Central",2825,"Beckenham","Beckenham School, 71 Sandwich Road",5176614.577,1571369.457,-43.56287669,172.6454879
4,"Christchurch Central",3046,"Beckenham","St Peter's School, 11 Fisher Avenue",5176946.828,1570758.192,-43.55986137,172.6379371
4,"Christchurch Central",3892,"Christchurch City","ABC Salisbury Street, 150 Salisbury Street",5180856.961,1570775.847,-43.52465501,172.6383662
4,"Christchurch Central",222,"Christchurch City","Christchurch East School, 311 Gloucester Street",5180318.134,1571405.305,-43.52953103,172.6461269
4,"Christchurch Central",223,"Christchurch City","Christchurch Public Hospital, The Great Escape Cafe, First Floor, 2 Riccarton Avenue",5179810.278,1569793.952,-43.53404034,172.6261578
4,"Christchurch Central",225,"Christchurch City","HMNZS Pegasus, 419 Montreal Street",5181133.779,1570114.786,-43.52213636,172.6302013
4,"Christchurch Central",3929,"Christchurch City","St Michael's Church School Hall, corner Tuam & Durham Streets",5179695.341,1570375.73,-43.53509855,172.6333517
4,"Christchurch Central",3269,"Linwood","Aspire Canterbury, 314 Worcester Street",5180132.223,1571945.1,-43.53122547,172.6527974
4,"Christchurch Central",229,"Linwood","Linwood College, Student Centre, 85 Aldwins Road",5179299.586,1573149.651,-43.53876691,172.6676633
4,"Christchurch Central",3776,"Mairehau","Mairehau High School, 440 Hills Road",5184354.077,1571519.701,-43.49319532,172.647754
4,"Christchurch Central",236,"Mairehau","Mairehau Primary School, 43 Mahars Road",5183727.81,1571135.319,-43.49881957,172.6429668
4,"Christchurch Central",4088,"Mairehau","St Albans Community Preschool, 3 Thames Street",5183088.371,1570839.003,-43.50456565,172.6392674
4,"Christchurch Central",234,"Mairehau","St Albans Uniting Parish, corner Knowles Street & Nancy Avenue",5183672.987,1570721.974,-43.49929712,172.6378512
4,"Christchurch Central",237,"Opawa","Opawa Baptist Church, 285 Wilsons Road",5178123.005,1571894.187,-43.54931469,172.6520633
4,"Christchurch Central",169,"Opawa","Opawa School, corner Ford Road & Newbery Street",5177422.317,1572900.817,-43.55566098,172.6644897
4,"Christchurch Central",3861,"Opawa","St Mark's Church Hall, corner Opawa Road & Vincent Place",5177894.125,1572742.86,-43.55140703,172.6625578
4,"Christchurch Central",4089,"Papanui","Northcity Church, 95a Sawyers Arms Road",5184948.188,1568101.602,-43.48770784,172.6055145
4,"Christchurch Central",4086,"Papanui","Papanui High School, 30 Langdons Road",5184308.949,1568198.318,-43.49346773,172.6066732
4,"Christchurch Central",239,"Papanui","Papanui Primary School, 40 Winters Road",5184905.317,1569263.008,-43.4881425,172.6198748
4,"Christchurch Central",238,"Papanui","Paparoa Street School, 120 Paparoa Street",5183626.802,1569245.045,-43.49965366,172.6195804
4,"Christchurch Central",3925,"Papanui","The Village Presbyterian Church Hall, corner Papanui Road & Frank Street",5183767.726,1568422.359,-43.49835045,172.6094127
4,"Christchurch Central",2429,"Papanui","St Joseph's School, 4 Vagues Road",5184822.337,1568811.18,-43.48887095,172.6142824
4,"Christchurch Central",3927,"Phillipstown","Phillipstown Community Centre, 39a Nursery Road",5179467.3,1572278.937,-43.53722496,172.6568949
4,"Christchurch Central",2436,"Redwood","Northcote School, 26 Tuckers Road",5185881.938,1568755.175,-43.47932784,172.6136506
4,"Christchurch Central",2437,"Redwood","Redwood Play Centre, 40 Dunedin Street",5186124.861,1569485.892,-43.4771707,172.6226995
4,"Christchurch Central",2438,"Redwood","Redwood School, 51 Prestons Road",5186531.706,1569429.907,-43.47350512,172.6220301
4,"Christchurch Central",2439,"Redwood","Redwood Scout Hall, 20 Sturrocks Road",5186310.778,1568822.143,-43.4754693,172.6145032
4,"Christchurch Central",3268,"St Albans","Beulah Church, 140 Springfield Road",5182027.442,1570372.654,-43.51410001,172.6334408
4,"Christchurch Central",250,"St Albans","Rehua Marae, whare kai (dining room), 79 Springfield Road",5181718.556,1570201.731,-43.51687445,172.6313092
4,"Christchurch Central",254,"St Albans","St Albans Baptist Church, 64 McFaddens Road",5183535.855,1569950.781,-43.50050126,172.6283047
4,"Christchurch Central",258,"St Albans","St Albans Primary School, 17 Sheppard Place",5182619.217,1570446.614,-43.50877454,172.634388
4,"Christchurch Central",3700,"St Albans","Blind Foundation, 96 Bristol Street",5182086.406,1569856.858,-43.51354846,172.6270626
4,"Christchurch Central",3921,"Sydenham","Special Needs Library, 109 Huxley Street",5177787.11,1571184.48,-43.55231203,172.6432598
4,"Christchurch Central",3357,"Sydenham","Sydenham Community Centre, 25-27 Hutcheson Street",5178290.901,1570787.618,-43.54776044,172.6383738
4,"Christchurch Central",260,"Waltham","Waltham School Hall, corner Waltham Road & Hastings Street East",5178157.982,1571615.299,-43.5489892,172.6486127
5,"Christchurch East",261,"Aranui","Aranui Primary School, 257 Breezes Road",5181850.651,1575799.529,-43.5158874,172.700575
5,"Christchurch East",3496,"Aranui","St Ambrose Church, 309 Breezes Road",5181636.742,1575992.453,-43.5178197,172.7029525
5,"Christchurch East",263,"Aranui","St James School, 25 Rowan Avenue",5182286.488,1576187.365,-43.51197552,172.7053926
5,"Christchurch East",264,"Avondale","Avondale Primary School, 132 Breezes Road",5182448.4,1575095.794,-43.51048205,172.6918954
5,"Christchurch East",265,"Avondale","Woolley Street Kindergarten, 63 Woolley Street",5182987.184,1574939.843,-43.50562554,172.6899909
5,"Christchurch East",231,"North Linwood","Linwood North School, 221 Woodham Road (Rowcliffe Crescent entrance)",5180847.997,1573800.35,-43.52484798,172.6757918
5,"Christchurch East",266,"Bromley","Bromley School, 33 Keighleys Road",5179560.53,1574733.013,-43.53647262,172.687273
5,"Christchurch East",269,"Burwood","Burwood Christian Centre, 54 Bassett Street",5184029.774,1574868.846,-43.4962355,172.6891608
5,"Christchurch East",273,"Burwood","Waitakiri School Community Hall, 170 Burwood Road",5184887.431,1574494.977,-43.48850034,172.6845768
5,"Christchurch East",268,"Burwood","Waitakiri School, 255 New Brighton Road",5183584.939,1574489.007,-43.500228,172.6844419
5,"Christchurch East",274,"Dallington","Banks Avenue School, 71 Banks Avenue",5182133.477,1573174.558,-43.51325114,172.6681115
5,"Christchurch East",277,"Kainga","Kainga Public Hall, Kainga Road",5193654.05,1572798.538,-43.40950393,172.6640343
5,"Christchurch East",232,"Linwood","St Chad's Anglican Church Hall, corner Carnarvon Street & Buckleys Road",5180501.141,1574060.256,-43.52798018,172.6789914
5,"Christchurch East",2423,"Marshland","Marshland School, 329 Prestons Road",5186484.778,1572417.761,-43.47404381,172.658969
5,"Christchurch East",278,"New Brighton","Central New Brighton School, Roy Stokes Hall, 140 Seaview Road",5182735.344,1577721.741,-43.50798128,172.7243939
5,"Christchurch East",279,"North New Brighton","Freeville School, 11 Sandy Avenue",5183900.854,1576392.246,-43.49744599,172.7079974
5,"Christchurch East",282,"North New Brighton","North New Brighton School, 150 Leaver Terrace",5184088.795,1577182.932,-43.49577829,172.7177851
5,"Christchurch East",284,"Ouruhia","Ouruhia School Library, 21 Turners Road",5189762.525,1572498.678,-43.44453328,172.6601348
5,"Christchurch East",285,"Parklands","Parkview School Hall, 10 Chadbury Street",5185771.114,1576194.296,-43.48059952,172.7056308
5,"Christchurch East",286,"Queenspark","Queenspark School Hall, 222 Queenspark Drive",5186559.793,1575443.579,-43.47347381,172.6963835
5,"Christchurch East",242,"Richmond","Kidsfirst Richmond Kindergarten, 41 North Avon Road",5181675.626,1572036.018,-43.51733193,172.654002
5,"Christchurch East",247,"Shirley","MacFarlane Park Free Kindergarten, 19 Acheson Avenue",5183527.909,1572045.965,-43.50065412,172.6542203
5,"Christchurch East",249,"Shirley","Shirley Intermediate School, 60 Shirley Road (North Parade entrance)",5182669.257,1572701.73,-43.50840978,172.6622886
5,"Christchurch East",3585,"Shirley","Shirley Primary School, 11 Shirley Road",5182725.219,1572034.992,-43.50788123,172.6540433
5,"Christchurch East",3895,"South New Brighton","South New Brighton School, 166 Estuary Road",5180712.172,1578486.474,-43.52622069,172.7337743
5,"Christchurch East",3497,"Wainoni","Ottawa Gardens Pre-School, 49 Ottawa Road",5181437.795,1574991.86,-43.51957821,172.6905631
5,"Christchurch East",291,"Wainoni","Wainoni School, 115 Eureka Street",5182970.222,1576426.253,-43.50582664,172.7083777
6,"Clutha-Southland",1528,"Arrowtown","Arrowtown Primary School, 9 Chalmers Place",5014359.946,1271757.476,-44.94834555,168.839041
6,"Clutha-Southland",4062,"Balclutha","Balclutha Balmoral Veterinary Service Hall, 34 Essex Street",4875080.448,1349543.042,-46.23168738,169.7518157
6,"Clutha-Southland",3565,"Balclutha","Somerville Lounge, Town Hall, Clyde Street",4874487.635,1348946.181,-46.236794,169.7437723
6,"Clutha-Southland",2907,"Balclutha","Balclutha Primary School Hall, 21 Lanark Street",4874109.34,1348861.877,-46.240162,169.7424793
6,"Clutha-Southland",295,"Balclutha","Rosebank School Hall, 21 Frances Street",4873361.549,1347556.862,-46.24639781,169.7251797
6,"Clutha-Southland",296,"Balclutha","St Andrew's Church Hall, corner Clyde & George Streets",4874287.613,1348453.393,-46.23840915,169.7372846
6,"Clutha-Southland",297,"Balfour","Balfour School, 131 Queen Street",4913938.736,1257214.32,-45.84276556,168.5854544
6,"Clutha-Southland",299,"Blackmount","Blackmount School, 4288 Blackmount-Redcliff Road",4913648.163,1186252.583,-45.80648313,167.6749757
6,"Clutha-Southland",300,"Browns","Hillside School, 24 McCaughan Street",4879151.529,1246545.525,-46.14948364,168.4227766
6,"Clutha-Southland",302,"Clifden","Hauroko Valley School, 956 Clifden Highway",4886575.89,1191046.653,-46.05196706,167.7133452
6,"Clutha-Southland",303,"Clinton","Clinton School, 34 Halsey Street",4877264.4,1320808.615,-46.20088526,169.3811646
6,"Clutha-Southland",305,"Crookston","Crookston Public Hall, 1252 Tapanui-Raes Junction Highway",4915827.535,1315719.536,-45.8524139,169.3383098
6,"Clutha-Southland",306,"Dipton","Dipton School, 1935 James Street",4907587.242,1239345.174,-45.89063324,168.3513159
6,"Clutha-Southland",307,"Drummond","Drummond Primary School, corner Boundary & Domain Roads",4877514.268,1225555.057,-46.15297426,168.1506178
6,"Clutha-Southland",308,"Dunrobin","Dunrobin Memorial Hall, corner Moa Flat, Triangle & Dunrobin Roads",4924058.275,1313925.154,-45.77774273,169.3201245
6,"Clutha-Southland",310,"Fairfax","Fairfax Public Hall, 1493 Riverton-Otautau Road",4870564.278,1218281.882,-46.21126203,168.0511744
6,"Clutha-Southland",3272,"Five Rivers","Five Rivers Hall, 1898 Five Rivers-Mossburn Road",4937941.964,1245266.777,-45.62136165,168.4496329
6,"Clutha-Southland",3220,"Frankton","Queenstown Events Centre, 35 Joe O'Connell Drive",5006321.692,1264208.591,-45.01698222,168.7382566
6,"Clutha-Southland",1538,"Frankton","St Margaret's Church, corner Kawarau Road & Ross Street",5006045.962,1263744.337,-45.0192376,168.7321966
6,"Clutha-Southland",313,"Garston","Garston School, 1705 State Highway 6",4956408.002,1263005.072,-45.46444896,168.6892135
6,"Clutha-Southland",1539,"Glenorchy","Glenorchy Primary School, corner Cantire & Oban Streets",5023269.013,1235500.813,-44.85075841,168.3872621
6,"Clutha-Southland",315,"Gore","Calvin Community Church , 25 Robertson Street",4886098.585,1285306.228,-46.10610128,168.927966
6,"Clutha-Southland",317,"Gore","East Gore School Hall, 3 Wentworth Street",4887822.74,1287738.108,-46.09173791,168.9604865
6,"Clutha-Southland",316,"Gore","Gore District Court, 6 Hokonui Drive",4887026.999,1286662.675,-46.09838972,168.9460853
6,"Clutha-Southland",318,"Gore","Gore Main School, School Hall, 39 Ardwick Street",4887277.39,1286224.81,-46.09594093,168.9405999
6,"Clutha-Southland",319,"Gore","Rachel's Studio of Dance (formerly Pipe Band Hall), 27 Hyde Street",4886233.5,1286770.28,-46.10556279,168.9469511
6,"Clutha-Southland",320,"Greenfield","Clutha Valley School, 2155 Clutha Valley Road",4889767.822,1333359.886,-46.09358886,169.5505773
6,"Clutha-Southland",321,"Heddon Bush","Heddon Bush School, 233 Hall Road",4885876.677,1225303.102,-46.07784275,168.1539604
6,"Clutha-Southland",323,"Heriot","Heriot School, 181 Roxburgh Street",4917066.058,1310594.977,-45.83915743,169.2731865
6,"Clutha-Southland",326,"Kaitangata","Kaitangata School, Salcombe Street",4869962.883,1357526.568,-46.28056894,169.8525606
6,"Clutha-Southland",3564,"Kaiwera","Kaiwera Hall, 883 Kaiwera-Pukerau Road",4880044.291,1298694.11,-46.16649981,169.0969399
6,"Clutha-Southland",327,"Kaka Point","Kaka Point Community Centre, Moana Street",4857945.566,1352564.227,-46.38676185,169.7819144
6,"Clutha-Southland",1547,"Kingston","Fire Brigade Meeting Room, 48 Kent Street",4970623.137,1264829.122,-45.3377296,168.7221387
6,"Clutha-Southland",328,"Lawrence","St John Rooms, 10 Ross Place",4910297.437,1343138.846,-45.9128712,169.6879033
6,"Clutha-Southland",329,"Limehills","Limehills School, Derby Road",4888087.618,1238738.124,-46.06523702,168.3287995
6,"Clutha-Southland",331,"Lumsden","Lumsden School, 19 Maria Street",4924678.21,1245936.059,-45.74071168,168.4485312
6,"Clutha-Southland",3566,"Manapouri","Manapouri Hall, 11 Hall Road",4939894.156,1180062.49,-45.56755971,167.6183293
6,"Clutha-Southland",333,"Mandeville","Mandeville Public Hall, 11 Waimea Valley Road",4898213.794,1274955.931,-45.99250984,168.8026558
6,"Clutha-Southland",334,"Mararoa","Mararoa School, 2373 State Highway 94",4943812.868,1201446.299,-45.54499375,167.8944364
6,"Clutha-Southland",335,"Mataura","Mataura School Hall, 33 Oakland Street",4876169.665,1280781.485,-46.19313102,168.8628868
6,"Clutha-Southland",338,"Milton","Tokomairiro Co-op Parish Hall, 30-34 Union Street",4888339.133,1365332.149,-46.11815851,169.9628557
6,"Clutha-Southland",339,"Milton","Tokomairiro High School, 238 Union Street",4888902.791,1365625.21,-46.11319328,169.9669214
6,"Clutha-Southland",342,"Mossburn","Mossburn School, 28 Surrey Street",4931791.259,1229057.402,-45.66807191,168.2377303
6,"Clutha-Southland",344,"Nightcaps","Takitimu Primary School, 17 Evans Street",4896743.576,1215202.627,-45.97480051,168.0325777
6,"Clutha-Southland",3713,"Ohai","Ohai Volunteer Fire Brigade, 61 Birchwood Road",4901139.618,1209323.466,-45.93206813,167.9605604
6,"Clutha-Southland",347,"Orawia","Orawia and Districts Community Centre, 2044 Ohai Clifden Highway",4887504.602,1199282.869,-46.0485111,167.8201521
6,"Clutha-Southland",349,"Otama","Otama School, 702 Otama Road",4902068.117,1279720.664,-45.96015105,168.8665997
6,"Clutha-Southland",351,"Otautau","Otautau School, 17 Elles Road",4878124.509,1213319.908,-46.1406808,167.9932634
6,"Clutha-Southland",352,"Owaka","Owaka Memorial Community Centre, 3 Ovenden Street",4850385.275,1343591.206,-46.45134513,169.6612633
6,"Clutha-Southland",354,"Pukerau","Pukerau School, 30 Pukerau Street",4887670.318,1298195.119,-46.09780361,169.0953409
6,"Clutha-Southland",2969,"Queenstown","Queenstown Memorial Hall, corner Memorial & Stanley Streets",5004627.224,1258188.423,-45.02931797,168.6609172
6,"Clutha-Southland",1581,"Queenstown","Queenstown Primary School Hall, 20 Robins Road",5004829.331,1258055.086,-45.02743959,168.6593668
6,"Clutha-Southland",356,"Riversdale","Riversdale School, 28 Rutland Street",4908142.494,1269442.026,-45.90076057,168.7384987
6,"Clutha-Southland",362,"Stirling","Stirling School, corner Baker & Boyd Streets",4873346.731,1351783.329,-46.24808743,169.7799111
6,"Clutha-Southland",363,"Tahakopa","Tahakopa School, 921 Tahakopa Valley Road",4842848.64,1322901.633,-46.51086176,169.3879023
6,"Clutha-Southland",364,"Taieri Beach","Taieri Beach School Library, 208 Moturata Road",4894150.324,1383085.878,-46.07179154,170.194991
6,"Clutha-Southland",365,"Tapanui","Tapanui School, 14a Sussex Street",4905623.2,1310142.77,-45.94173992,169.2604753
6,"Clutha-Southland",3133,"Te Anau","Te Anau School Hall, 167 Milford Road",4957531.443,1186714.161,-45.41345944,167.7180431
6,"Clutha-Southland",2911,"Tuatapere","Tuatapere Waiau Area School, 47 Orawia Road",4877828.958,1189731.82,-46.12956691,167.6888816
6,"Clutha-Southland",374,"Waihola","Waihola & Districts School, 5 Kilgour Street",4899455.164,1375513.828,-46.0216641,170.0996974
6,"Clutha-Southland",375,"Waikaia","Waikaia School, 22 Leamington Street",4928238.099,1276918.361,-45.72391485,168.8480727
6,"Clutha-Southland",376,"Waikaka","Waikaka School, 22 Matheson Road",4906417.246,1291227.503,-45.92637223,169.0175339
6,"Clutha-Southland",377,"Waikoikoi","Waikoikoi Public Hall, corner State Highway 90 & Koi Flat Road",4898063.751,1302209.158,-46.00623226,169.1536479
6,"Clutha-Southland",379,"Waimumu","Waimumu Te Tipua Hall, corner Waimumu & Glendhu Roads",4883326.652,1276814.646,-46.12701931,168.8164948
6,"Clutha-Southland",2912,"Waipahi","Waipahi Community Centre, 54 Railway Terrace",4887133.707,1309277.368,-46.10742735,169.2380722
6,"Clutha-Southland",382,"Waitahuna","Waitahuna School, 18 Sunderland Street",4902356.972,1348992.578,-45.98638602,169.7591005
6,"Clutha-Southland",383,"Waiwera South","Waiwera South School, 16 May Street",4875929.056,1329233.859,-46.21628342,169.489395
6,"Clutha-Southland",384,"Warepa","Warepa School, 383 Old Port Road",4870443.157,1339767.522,-46.26968038,169.6226967
6,"Clutha-Southland",3277,"Winton","Central Southland College, corner Grange & Mackenzie Streets",4880053.732,1238538.581,-46.137197,168.3201212
6,"Clutha-Southland",388,"Winton","Winton Primary School Hall, 16 Eglinton Street",4878902.457,1239152.679,-46.14784898,168.3271696
7,"Coromandel",390,"Athenree","Athenree Fire Brigade Hall, 43 Roretana Drive",5851623.86,1862167.238,-37.4451104,175.96351
7,"Coromandel",391,"Colville","Colville School, 2391 Colville Road",5943524.773,1821061.016,-36.62820035,175.4722904
7,"Coromandel",392,"Cooks Beach","Cooks Beach Community Centre, corner Purangi Road & Rees Avenue",5919512.012,1844136.689,-36.83879206,175.7377817
7,"Coromandel",393,"Coroglen","Coroglen School, 10 Rangihau Road",5910115.727,1840337.317,-36.9243751,175.6981956
7,"Coromandel",394,"Coromandel","Coromandel Area School Hall, 120 Woollams Avenue",5928917.498,1823162.454,-36.75926807,175.5000306
7,"Coromandel",979,"Elstow","Elstow-Waihou Combined School, 356 Bowler Road",5843707.497,1833149.54,-37.52415851,175.6383419
7,"Coromandel",395,"Hahei","Hahei Community Centre, 54 Hahei Beach Road",5919113.234,1849886.631,-36.84088074,175.8023242
7,"Coromandel",3714,"Hikutaia","Hikutaia Hall, State Highway 26",5868983.031,1835450.034,-37.29599174,175.6562953
7,"Coromandel",721,"Kaiaua","Kaiaua School, 1061 East Coast Road",5891593.999,1804224.039,-37.09971995,175.2981048
7,"Coromandel",397,"Kaihere","Kaihere School, 1115B State Highway 27",5861026.807,1814331.545,-37.37275099,175.4205441
7,"Coromandel",399,"Katikati","Katikati Primary School, 24 Beach Road",5839903.273,1858133.712,-37.55175243,175.922082
7,"Coromandel",3128,"Katikati","Katikati War Memorial Hall, 29-31 Main Road",5839704.461,1857725.832,-37.55365625,175.9175401
7,"Coromandel",401,"Kennedy Bay","Te Kura Kaupapa Māori O Harataunga, 1416 Kennedy Bay Road",5938838.061,1827899.852,-36.66879781,175.5500988
7,"Coromandel",402,"Kerepehi","Kerepehi School, 11 McGowan Avenue",5869146.092,1825215.094,-37.29705797,175.5408836
7,"Coromandel",403,"Kopuarahi","Kopuarahi School, corner State Highway 25 & Bush Road",5877753.513,1822391.089,-37.22022442,175.5064798
7,"Coromandel",404,"Kuaotunu","Kuaotunu Hall, corner Black Jack & Irish Town Roads",5932446.963,1843856.29,-36.72239184,175.7305026
7,"Coromandel",405,"Manaia","Manaia School, 22 Goldfields Road",5918760.569,1820984.593,-36.85125422,175.4786017
7,"Coromandel",989,"Manawaru","Manawaru School, 442 Manawaru Road",5831290.734,1843871.074,-37.63317562,175.7636735
7,"Coromandel",725,"Mangatangi","Mangatangi School, 2047 Miranda Road",5880684.809,1795657.414,-37.19981342,175.2046242
7,"Coromandel",407,"Netherton","Netherton School, 7 School Road",5864188.381,1831199.311,-37.34023182,175.6098788
7,"Coromandel",408,"Ngatea","Ngatea Primary School, 52 Orchard West Road",5871674.202,1821070.091,-37.27528572,175.4934086
7,"Coromandel",411,"Opoutere","Opoutere School, State Highway 25",5886947.95,1852826.591,-37.12969444,175.8460336
7,"Coromandel",2915,"Paeroa","Miller Avenue School, 30 Miller Avenue",5860549.867,1836614.008,-37.37162946,175.6721042
7,"Coromandel",412,"Paeroa","Paeroa Memorial Hall, 144 Normanby Road",5859405.547,1836691.111,-37.38191327,175.67334
7,"Coromandel",3246,"Pauanui","Pauanui Sport & Recreation Club, 31 Sheppard Avenue",5898962.401,1854357.937,-37.02111281,175.8591847
7,"Coromandel",2917,"Puriri","Puriri School, 12 Puriri Valley Road",5876422.346,1834134.545,-37.22933698,175.6391286
7,"Coromandel",1009,"Springdale","Springdale School, 985 Number 1 Road",5842986.563,1826972.793,-37.53219057,175.5687332
7,"Coromandel",1010,"Tahuna","Tahuna School, 43 Tahuna-Ohinewai Road",5846505.56,1820085.813,-37.5021709,175.4898055
7,"Coromandel",4115,"Tairua","Tairua Community Hall, 210 Main Road",5900807.984,1853434.706,-37.00474608,175.8481979
7,"Coromandel",419,"Tapu","Tapu School, 719 Thames Coast Road",5903832.753,1822611.881,-36.98531162,175.5012274
7,"Coromandel",1011,"Tatuanui","Tatuanui School, 4513 Whakahongi Road (State Highway 27)",5832972.209,1829236.958,-37.62180258,175.5974661
7,"Coromandel",1012,"Tauhei","Tauhei Combined School, 860 Tauhei Road",5835524.312,1814399.858,-37.60240026,175.4287434
7,"Coromandel",1013,"Te Aroha","Matamata-Piako District Council, Conference Room, 35 Kenrick Street",5841237.914,1839503.284,-37.54476587,175.7109741
7,"Coromandel",3984,"Te Aroha","Te Aroha College Hall, 106 Stanley Avenue",5841543.57,1837882.158,-37.5424336,175.6925439
7,"Coromandel",1014,"Te Aroha","Te Aroha Primary School, corner Whitaker Street & Jubilee Avenue",5842043.091,1839400.862,-37.53754307,175.7095534
7,"Coromandel",3954,"Te Puru","Te Puru School Hall, 507 Thames Coast Road",5897634.715,1824157.827,-37.04076197,175.5204259
7,"Coromandel",423,"Te Rerenga","Te Rerenga School, 1229 State Highway 25",5929207.312,1831800.942,-36.75458604,175.5966288
7,"Coromandel",400,"Thames","Kauaeranga Hall, 437 Kauaeranga Valley Road",5885719.133,1830770.455,-37.14645962,175.5983732
7,"Coromandel",427,"Thames","Moanataiari School, 101 Kuranui Street",5887763.509,1824991.612,-37.12945746,175.5327505
7,"Coromandel",428,"Thames","Parawai School, 106 Lowe Avenue",5884810.265,1827389.111,-37.15547245,175.5606118
7,"Coromandel",425,"Thames","Tararu Cultural Centre, 604 Tararu Road",5889040.862,1824466.952,-37.11808032,175.526467
7,"Coromandel",426,"Thames","Thames High School, 300 Sealey Street",5886615.203,1826039.179,-37.13954584,175.544879
7,"Coromandel",429,"Thames","Thames South School, corner Grey & Rolleston Streets",5886048.586,1826325.372,-37.14457918,175.5482695
7,"Coromandel",2916,"Thames","Thames-Hauraki Disability Resource Centre Building, 609 Mackay Street",5886916.907,1825839.523,-37.13687713,175.5425422
7,"Coromandel",430,"Turua","Turua Primary School, 523 Hauraki Road",5875178.015,1827850.708,-37.242099,175.5687444
7,"Coromandel",433,"Waihi","Waihi Central School, Moresby Avenue",5858083.558,1851313.952,-37.38996744,175.8387688
7,"Coromandel",432,"Waihi","Waihi East School, 6-8 Donnelly Street",5858938.849,1852887.148,-37.38183979,175.8562267
7,"Coromandel",434,"Waihi Beach","Waihi Beach School, 100 Beach Road",5856042.523,1860092.109,-37.40591972,175.938525
7,"Coromandel",1029,"Waihou","Waihou Community Hall, 2 Second Avenue",5838208.147,1836294.059,-37.57287324,175.6756609
7,"Coromandel",435,"Waikino","Victoria Hall, State Highway 2",5855723.52,1845284.425,-37.41283039,175.7715178
7,"Coromandel",436,"Waitakaruru","Waitakaruru School, Canal West Road",5876241.075,1812289.109,-37.23619998,175.3931479
7,"Coromandel",1030,"Waitoa","Waitoa School, 3932 State Highway 26",5835714.294,1832835.815,-37.59620863,175.6373326
7,"Coromandel",3715,"Whangamata","Whangamata Memorial Hall, 328 Port Road",5877873.221,1854605.247,-37.21091067,175.8691226
7,"Coromandel",441,"Whiritoa","Whiritoa Emergency Management Centre, Whiritoa Beach Road",5869715.635,1856888.012,-37.28372374,175.89763
7,"Coromandel",2914,"Whitianga","Matarangi Fire Station, 201B Matarangi Drive",5931401.785,1837693.803,-36.73336627,175.6618936
7,"Coromandel",442,"Whitianga","Mercury Bay Area School, 20 South Highway",5919340.355,1840589.863,-36.84124681,175.6981018
7,"Coromandel",3278,"Whitianga","St Andrews by the Sea Community Church, corner Albert & Owens Streets",5919891.526,1841052.828,-36.83616582,175.7031137
7,"Coromandel",440,"Whenuakite","Whenuakite School, 1055 State Highway 25",5910953.867,1847404.112,-36.91500053,175.777175
7,"Coromandel",3399,"Whitianga","Whitianga Memorial Hall, 24 Monk Street",5920161.165,1841309.334,-36.83367241,175.7059016
8,"Dunedin North",445,"Bradford","Bradford School, 42a Bradford Street",4916594.202,1403457.597,-45.87614604,170.4673728
8,"Dunedin North",446,"Brockville","Brockville School, 263 Brockville Road",4917547.324,1402875.171,-45.86740933,170.4602658
8,"Dunedin North",447,"Careys Bay","Port Chalmers Fishermen's Co-Op Society Offices, 10 Macandrew Road",4924438.365,1415411.645,-45.8089141,170.6242792
8,"Dunedin North",2966,"Dunback","Coronation Hall, 1238 Dunback-Morrisons Road (State Highway 85)",4971782.651,1414250.822,-45.38282611,170.6273735
8,"Dunedin North",451,"Dunedin City","Age Concern Otago, Lower Octagon (beside Moran Building)",4916918.957,1406316.86,-45.87403623,170.5043122
8,"Dunedin North",449,"Dunedin City","Arthur Street School, 26 Arthur Street",4917054.407,1405600.876,-45.87261648,170.4951501
8,"Dunedin North",456,"Dunedin City","Dunedin Hospital, 1st Floor Foyer to Lecture Halls, 201 Great King Street",4917500.918,1406620.184,-45.86888849,170.5084509
8,"Dunedin North",3772,"Dunedin City","Malcam Trust, Jubilee Park (off Maori Road)",4916590.678,1405107.583,-45.87664682,170.4886122
8,"Dunedin North",457,"Dunedin City","Salvation Army McMillan Lounge, 575 Princes Street",4915900.955,1405947.598,-45.88308608,170.4991478
8,"Dunedin North",448,"Dunedin North","All Saints Church Hall, 786 Cumberland Street",4918250.516,1407037.056,-45.862265,170.5141175
8,"Dunedin North",453,"Dunedin North","George Street Normal School, 989 George Street",4918702.662,1406885.691,-45.85815685,170.5123508
8,"Dunedin North",452,"Dunedin North","Kelsey Yaralla Kindergarten, 4 Trent Avenue",4917692.639,1407108.884,-45.86730159,170.5148183
8,"Dunedin North",455,"Dunedin North","Knox Church Hall, 453 George Street",4917720.747,1406510.859,-45.86688107,170.5071321
8,"Dunedin North",450,"Dunedin North","University of Otago College of Education, 141 Union Street",4917672.17,1407464.907,-45.86758529,170.5193927
8,"Dunedin North",471,"Dunedin North","University of Otago, ISB Link East, 630 Cumberland Street",4917910.237,1406893.725,-45.86528464,170.5121362
8,"Dunedin North",4087,"Dunedin North","University of Otago, ISB Link West, 630 Cumberland Street",4917801.32,1406864.607,-45.86625586,170.5117177
8,"Dunedin North",459,"Halfway Bush","Halfway Bush Community Hall, 54 Ashmore Street",4918764.918,1403275.348,-45.85657547,170.4659143
8,"Dunedin North",1540,"Hampden","Hampden Primary School, 41-47 Norwich Street",4978591.182,1428840.058,-45.32530284,170.8159419
8,"Dunedin North",3875,"Herbert","Public Hall, 17 Tain Street",4989921.595,1425906.756,-45.22266716,170.7825145
8,"Dunedin North",461,"Kaikorai","Kaikorai Presbyterian Church Hall, 127 Taieri Road",4917862.109,1404741.68,-45.8651106,170.4844179
8,"Dunedin North",3380,"Kaikorai","Kaikorai Valley College, 500 Kaikorai Valley Road",4915968.222,1403467.539,-45.88177752,170.4672449
8,"Dunedin North",1546,"Karitane","Karitane Primary School, 179 Coast Road",4942820.876,1417366.537,-45.64411646,170.6563453
8,"Dunedin North",463,"Long Beach","McCurdy Grimman Hall, 22 Driver Street",4930267.743,1416699.377,-45.75683348,170.6430499
8,"Dunedin North",464,"Maori Hill","Coronation Hall, 1 Balmacewen Road",4918689.891,1405950.428,-45.85800885,170.5003094
8,"Dunedin North",1555,"Moeraki","Coronation Hall, 41 Haven Street",4974673.894,1431121,-45.36109157,170.8436888
8,"Dunedin North",466,"Mornington","Mornington School, 34 Elgin Road",4915907.193,1404111.63,-45.88250989,170.4755124
8,"Dunedin North",467,"Mornington","Mornington Scout Hall, 66 Argyle Street",4915638.806,1404516.022,-45.88503815,170.4806097
8,"Dunedin North",468,"Mornington","St Francis Parish Centre, 27 Benhar Street",4915182.278,1404160.725,-45.88904214,170.4758491
8,"Dunedin North",469,"North East Valley","Dunedin North Intermediate School, 34 North Road",4919245.368,1407634.569,-45.85348629,170.5222054
8,"Dunedin North",3587,"North East Valley","North East Valley Normal School, 248 North Road",4919773.252,1408258.103,-45.84891327,170.5304396
8,"Dunedin North",472,"Opoho","Opoho School, 96 Signal Hill Road",4919256.606,1408473.523,-45.85361898,170.533006
8,"Dunedin North",1576,"Palmerston","East Otago High School, 3 Stour Street",4961192.537,1421868.006,-45.48005401,170.7207584
8,"Dunedin North",473,"Pine Hill","Pine Hill School, 11 Hislop Street",4920019.454,1407246.553,-45.84641717,170.5175221
8,"Dunedin North",474,"Port Chalmers","Port Chalmers School, 30a Albertson Avenue",4923076.775,1414925.624,-45.82102848,170.617507
8,"Dunedin North",3279,"Port Chalmers","Port Chalmers Town Hall, 1 Grey Street",4923715.266,1415302.681,-45.81538769,170.6226012
8,"Dunedin North",476,"Ravensbourne","Ravensbourne Fire Station, 243 Ravensbourne Road",4917924.346,1410225.782,-45.86608404,170.5550301
8,"Dunedin North",477,"Roslyn","Roslyn Baptist Church, 309 Highgate",4917714.724,1405151.893,-45.86655206,170.489638
8,"Dunedin North",479,"Roslyn","Roslyn Kindergarten, 69 Highgate",4917175.134,1404595.003,-45.87124618,170.482251
8,"Dunedin North",478,"Roslyn","St Johns Anglican Church Hall, 373 Highgate",4917871.063,1405377.028,-45.86520993,170.492599
8,"Dunedin North",481,"Sawyers Bay","Sawyers Bay School, 99 Stevenson Avenue",4923181.941,1413655.55,-45.81974078,170.6012122
8,"Dunedin North",480,"St Leonards","King George Hall, 29 St Leonards Drive",4920174.709,1411981.018,-45.84632908,170.5785023
8,"Dunedin North",1589,"Waikouaiti","East Otago Events Centre, 203 Main Road",4948214.914,1418186.299,-45.59582056,170.6688684
8,"Dunedin North",1591,"Waitati","Waitati Blueskin Bay Library, 28 Harvey Street",4930963.94,1411040.215,-45.74904907,170.5706191
8,"Dunedin North",444,"Wakari","Balmacewen Intermediate School, 44 Chapman Street",4918356.647,1405107.942,-45.86076751,170.4893323
8,"Dunedin North",483,"Wakari","Wakari School, 150 Helensburgh Road",4918819.52,1404353.262,-45.85639148,170.4798079
8,"Dunedin North",1593,"Warrington","Warrington Primary School, 3 Ferguson Street",4935421.211,1412865.515,-45.709462,170.5957866
9,"Dunedin South",485,"Abbotsford","Community Hall, 72 North Taieri Road",4914579.419,1399642.636,-45.893162,170.4174237
9,"Dunedin South",503,"Abbotsford","Scout Hall, corner Abbotsford Road & Unsworth Street",4913852.288,1400217.756,-45.89986717,170.4245269
9,"Dunedin South",3271,"Allanton","Allanton Community Centre, 11 Grey Street",4911677.368,1388083.512,-45.91578925,170.2673142
9,"Dunedin South",489,"Brighton","Big Rock School, 2 Bath Street",4908144.045,1393107.472,-45.94908647,170.330502
9,"Dunedin South",490,"Broad Bay","Broad Bay School, 4 Roebuck Rise",4920131.89,1415529.847,-45.84767329,170.6241512
9,"Dunedin South",4030,"Calton Hill","Carisbrook Heights (previously known as Calton Hill Community Hall), 38 Riselaw Road",4914114.914,1403534.041,-45.89846092,170.4673433
9,"Dunedin South",4029,"Caversham","Carisbrook Main School (previously known as Caversham School), 217 South Road",4914514.075,1404811.057,-45.89523528,170.4839515
9,"Dunedin South",494,"Concord","Concord Kindergarten, 93 Mulford Street",4913267.833,1403190.656,-45.90597943,170.4625739
9,"Dunedin South",493,"Concord","Concord School, 5 Thoreau Street",4913525.836,1402540.265,-45.90347313,170.454303
9,"Dunedin South",496,"Corstorphine","Corstorphine Community Hall, 235 Middleton Road",4912924,1403859.237,-45.90926209,170.4710448
9,"Dunedin South",500,"East Taieri","East Taieri School, 11 Cemetery Road",4914775.071,1394176.142,-45.88978938,170.3471206
9,"Dunedin South",501,"Fairfield","Fairfield Community Hall, corner Main Road & Fairplay Street",4913964.491,1397735.538,-45.89813293,170.3926082
9,"Dunedin South",529,"Forbury Corner","St Bernadette's School Hall, 16 Forbury Road",4913957.354,1404855.567,-45.90025384,170.4842985
9,"Dunedin South",502,"Green Island","Otago School of Piping and Drumming, 186 Main South Road",4913606.386,1400936.145,-45.90228646,170.4336766
9,"Dunedin South",3873,"Green Island","The Landmark Baptist Lighthouse, 222 Main South Road",4913577.761,1400528.181,-45.90242565,170.4284106
9,"Dunedin South",3273,"Henley","Henley Community Centre, 1216 Centre Road",4904324.423,1380594.485,-45.97953896,170.1674922
9,"Dunedin South",1549,"Lee Stream","Lee Stream School, 2522 Clarks Junction-Lee Stream Road (State Highway 87)",4926101.69,1374377.339,-45.78176813,170.097552
9,"Dunedin South",507,"Macandrew Bay","Macandrew Bay School, 488 Portobello Road",4917624.198,1413554.663,-45.86969249,170.5977632
9,"Dunedin South",1553,"Middlemarch","Strath Taieri School, 33 Swansea Street",4956940.035,1374968.223,-45.50474079,170.119398
9,"Dunedin South",3283,"Mosgiel","A&P Showgrounds, 320 Gordon Road",4918016.281,1393523.154,-45.86045261,170.340105
9,"Dunedin South",3284,"Mosgiel","Chatsford, 77 Doon Street",4916346.167,1395493.809,-45.87605654,170.3647543
9,"Dunedin South",516,"Mosgiel","Elmgrove School, 74 Argyle Street",4915874.5,1394097.542,-45.87988106,170.3465796
9,"Dunedin South",3282,"Mosgiel","Mosgiel Abilities Resource Centre, 16 Green Street",4916304.827,1394613.828,-45.87616626,170.3534095
9,"Dunedin South",4037,"Mosgiel","Mosgiel Coronation Hall, 97 Gordon Rd",4916194.491,1394326.933,-45.87707263,170.3496694
9,"Dunedin South",3286,"Mosgiel","Reid Park Kindergarten, 63 Murray Street",4917303.037,1394715.316,-45.86722168,170.3551419
9,"Dunedin South",3695,"Mosgiel","Salvation Army Hall, 4 Lanark Street",4916327.164,1394177.767,-45.8758352,170.3478061
9,"Dunedin South",3767,"Mosgiel","Senior Citizen's Hall, 5a Hartstonge Avenue (next to Mosgiel Library)",4916745.158,1394156.13,-45.8720706,170.3477065
9,"Dunedin South",3486,"Mosgiel","Silverstream (South) Primary School, 52 Green Street",4916485.584,1395105.573,-45.87468761,170.3598163
9,"Dunedin South",487,"Musselburgh","Musselburgh Baptist Church, 131 Musselburgh Rise",4914370.567,1407644.859,-45.8973239,170.5203878
9,"Dunedin South",532,"Musselburgh","Musselburgh School Library, 34 Marlow Street",4913671.967,1407227.935,-45.90348902,170.514738
9,"Dunedin South",531,"Musselburgh","Presbyterian Sunday School Hall, 26 Queens Drive",4914098.334,1406823.296,-45.8995416,170.5096978
9,"Dunedin South",519,"Ocean View","Ocean View Public Hall, 812 Brighton Road",4909298.861,1394220.692,-45.9390383,170.345346
9,"Dunedin South",520,"Otakou","Te Rununga Otakou, Otakou Marae, 45 Tamatea Road",4925348.948,1422237.735,-45.80251722,170.7123968
9,"Dunedin South",521,"Outram","Outram School, 1 Beaumaris Street",4917645.013,1384844.892,-45.86113446,170.2282727
9,"Dunedin South",522,"Portobello","Portobello School, 30 Harrington Point Road",4921257.459,1418065.002,-45.83822501,170.6571996
9,"Dunedin South",4023,"South Dunedin","Bathgate Park School, 213 Macandrew Road",4913984.014,1405487.566,-45.90019313,170.4924488
9,"Dunedin South",524,"South Dunedin","Dunedin South Presbyterian Hall, 393 King Edward Street",4914134.514,1406282.259,-45.89906412,170.5027444
9,"Dunedin South",3551,"South Dunedin","Edgar Sports Centre, corner Portsmouth Drive & Teviot Street",4914916.504,1406955.06,-45.8922216,170.5117236
9,"Dunedin South",526,"South Dunedin","Methodist Church Hall, 11 Wesley Street",4914484.395,1405550.748,-45.89571163,170.4934651
9,"Dunedin South",3768,"South Dunedin","Nations Christian Church, 334 King Edward Street",4914328.413,1406219.968,-45.89730304,170.5020204
9,"Dunedin South",528,"South Dunedin","St Patrick's Community Centre, 42 Macandrew Road",4914514.672,1406256.508,-45.8956385,170.5025661
9,"Dunedin South",530,"St Clair","St Clair School Hall, 87 Albert Street",4913098.47,1405571.866,-45.90817966,170.4931759
9,"Dunedin South",3865,"St Clair","Vintage Car Club, 125 Forbury Road",4913350.803,1405139.492,-45.90578834,170.487709
9,"Dunedin South",3769,"St Kilda","Dunedin Ice Stadium, 101 Victoria Road",4913239.892,1406508.623,-45.90717223,170.5052992
9,"Dunedin South",3285,"St Kilda","Holy Cross Anglican Church,17 Ajax Street",4913793.757,1406434.777,-45.90217112,170.5045713
9,"Dunedin South",535,"Tainui","Tainui School Hall, 41 Tahuna Road",4913724.132,1407998.829,-45.90323559,170.524688
9,"Dunedin South",4028,"Waverley","Grants Braes School, 137 Belford Street",4915796.829,1408655.334,-45.88478053,170.5339694
9,"Dunedin South",539,"Wingatui","Wingatui Hall, 270 Gladstone Road North",4916316.815,1397240.925,-45.87683723,170.3872313
10,"East Coast",2899,"Awakeri","Awakeri School, 974 State Highway 30",5787564.198,1942277.741,-37.99502531,176.8975011
10,"East Coast",541,"Cape Runaway","Te Kura Mana Māori o Whangaparaoa, State Highway 35",5829607.965,2041385.67,-37.57478366,177.9969654
10,"East Coast",3593,"Coastlands","Rangitaiki Independent School, 33 Meadow Vale",5793919.67,1949045.958,-37.93530417,176.9713176
10,"East Coast",4031,"Edgecumbe","Edgecumbe College, 100 College Road",5790820.665,1936272.744,-37.9679856,176.8277406
10,"East Coast",2001,"Galatea","Galatea School, Mangamate Road",5741971.09,1926694.125,-38.41080801,176.7413621
10,"East Coast",544,"Gisborne","Awapuni School, 129 Awapuni Road",5708306.074,2035899.407,-38.66652909,178.0091163
10,"East Coast",545,"Gisborne","Central School, 7 Central Street",5709472.899,2037852.031,-38.65509233,178.0307399
10,"East Coast",547,"Gisborne","Cobham School, 274 Lytton Road",5708985.339,2034748.702,-38.66099593,177.995515
10,"East Coast",549,"Gisborne","Elgin School, 2 Knox Street",5709655.479,2034648.934,-38.6550286,177.9939538
10,"East Coast",551,"Gisborne","Gisborne  Hospital, 421 Ormond Road",5711555.934,2035762.323,-38.6374211,178.0055108
10,"East Coast",548,"Gisborne","Gisborne District Council, 15 Fitzherbert Street",5708363.71,2037697.698,-38.6651258,178.0296712
10,"East Coast",550,"Gisborne","Gisborne Girls High School, 555 Gladstone Road",5709565.477,2035999.505,-38.65517375,178.0094728
10,"East Coast",552,"Gisborne","Ilminster Intermediate, 70 - 80 De Lautour Road",5707762.74,2039054.742,-38.66984973,178.0455888
10,"East Coast",554,"Gisborne","Kaiti School, 517 Wainui Road",5707103.451,2038984.171,-38.67580302,178.0451972
10,"East Coast",3980,"Gisborne","Mangapapa School, 5 Rua Street",5710346.261,2036968.76,-38.64768752,178.0200791
10,"East Coast",557,"Gisborne","Riverdale School, 324 Stout Street",5710756.306,2035581.692,-38.64468841,178.0039437
10,"East Coast",558,"Gisborne","Rutene Road Kindergarten, 128 Rutene Road",5707936.404,2038273.129,-38.66867749,178.0365293
10,"East Coast",561,"Gisborne","Te Hapara School, 31 Mill Road",5710023.724,2035309.834,-38.65139858,178.00129
10,"East Coast",562,"Gisborne","Waikirikiri School, 7 Pickering Street",5707192.472,2040006.012,-38.67449725,178.0568423
10,"East Coast",3599,"Gisborne","YMCA Hall, 150 Roebuck Road",5708864.345,2036183.449,-38.66137762,178.0120185
10,"East Coast",563,"Hicks Bay","Te Kura Kaupapa Māori o Kawakawa mai Tawhiti, 22 Wharf Road",5826326.811,2067352.697,-37.59143865,178.2919138
10,"East Coast",2005,"Kawerau","District Council, Town Hall, Ranfurly Court",5778085.76,1924685.594,-38.08673945,176.7018704
10,"East Coast",2006,"Kawerau","Putauaki School Hall, 87 Fenton Mill Road",5777815.433,1923220.488,-38.08969552,176.6853203
10,"East Coast",565,"Kutarere","Kutarere School, 461 State Highway 2",5781147.035,1963992.107,-38.0442636,177.1474387
10,"East Coast",567,"Makaraka","Makaraka School, 137 Main Road South",5710235.027,2031754.159,-38.65123921,177.9604503
10,"East Coast",4127,"Makaraka","Gisborne, A and P Showgrounds, 20 Main Road",5710395.901,2033618.225,-38.64888574,177.9816914
10,"East Coast",568,"Makauri","Makauri School, 120 King Road",5713158.187,2031623.316,-38.62505842,177.9571397
10,"East Coast",185,"Maketu","Maketu School, School Road",5814966.604,1904447.542,-37.76198019,176.4559471
10,"East Coast",186,"Manawahe","Manawahe Community Hall, 1866 Manawahe Road",5788203.137,1919985.357,-37.99741329,176.6438633
10,"East Coast",569,"Manutuke","Manutuke School, 59 Waingake Road",5707329.539,2026735.698,-38.67975546,177.9047738
10,"East Coast",188,"Matata","Matata Public School, 43 Pollen Street",5799361.389,1930569.191,-37.8932677,176.7590291
10,"East Coast",3531,"Minginui","Minginui Health & Kokiri Centre, 63 Rimu Crescent",5715910.288,1924848.354,-38.64584492,176.7323694
10,"East Coast",2016,"Murupara","Murupara Municipal Hall, Pine Drive",5737038.042,1923207.218,-38.45644,176.7037759
10,"East Coast",576,"Ohope","Ohope Beach School, 170 Pohutukawa Avenue",5789811.823,1955739.094,-37.96964252,177.0493265
10,"East Coast",3219,"Ohope","Ohope Community Hall, Bluett Road",5789412.458,1956492.606,-37.97293756,177.0580818
10,"East Coast",577,"Omaio","Te Kura o Omaio, School Road",5804602.385,2007934.764,-37.81484574,177.6334317
10,"East Coast",578,"Omarumutu","Omarumutu School, 141 Omarumutu Road",5785405.602,1986867.027,-37.99651982,177.4050974
10,"East Coast",579,"Opotiki","Opotiki College Hall, St John Street",5784042.2,1976502.418,-38.01313191,177.2881033
10,"East Coast",580,"Opotiki","Opotiki Senior Citizens Hall, 1 King Street",5784843.6,1976028.579,-38.00612574,177.2823007
10,"East Coast",582,"Ormond","Ormond School, 45 Whitmore Road",5721334.276,2028776.471,-38.55302732,177.9195322
10,"East Coast",193,"Otakiri","Otakiri School, Staff Room, 571 Otakiri Road",5789027.454,1930497.788,-37.98623222,176.7629613
10,"East Coast",194,"Otamarakau","Otamarakau School, Room 2, 2216 Old Coach Road",5806169.962,1915786.816,-37.83726773,176.5882687
10,"East Coast",195,"Paengaroa","Paengaroa School, Multi Purpose Room, 33 Old Coach Road",5808114.562,1900556.315,-37.82491577,176.4146877
10,"East Coast",584,"Patutahi","Patutahi School, 29 Atkins Street",5713393.208,2025612.367,-38.62584995,177.8881959
10,"East Coast",198,"Pongakawa","Pongakawa School, 956 Old Coach Road",5806514.788,1905984.433,-37.83750507,176.4769305
10,"East Coast",199,"Pukehina","Pukehina School, 1762 Old Coach Road",5805345.833,1911751.395,-37.846069,176.5428506
10,"East Coast",200,"Pukehina Beach","Pukehina Community Hall, 14 Pukehina Parade",5811687.786,1910633.24,-37.78939792,176.5274463
10,"East Coast",586,"Raukokore","Raukokore School, State Highway 35",5823757.124,2031283.377,-37.63211001,177.8864259
10,"East Coast",3533,"Ruatahuna","Huiarau School, 98 Sister Annie Road",5719449.39,1944418.234,-38.60664268,176.9549847
10,"East Coast",594,"Ruatoki North","Te Kura o Tawera, 164 Ngahina Road",5769691.279,1949272.163,-38.15305583,176.985696
10,"East Coast",3989,"Ruatoria","Ngata Memorial College, 1 College Road North",5792684.592,2068311.257,-37.89287289,178.3243703
10,"East Coast",593,"Taneatua","Taneatua School, 44 McKenzie Street",5779366.315,1951767.639,-38.06510235,177.0093437
10,"East Coast",595,"Te Araroa","Te Waha O Rerekohu Area School, 3 Arewhana Street",5821254.949,2073613.906,-37.63375686,178.3658065
10,"East Coast",3603,"Te Kaha","Te Whanau-a-Apanui Area School, State Highway 35",5813823.367,2013752.381,-37.72939916,177.6940559
10,"East Coast",597,"Te Karaka","Te Karaka Area School, 5 Kanakanaia Road",5730914.162,2024615.238,-38.46899937,177.8661419
10,"East Coast",3990,"Te Puia Springs","GDC Service Centre, 6 Waipiro Road",5774681.144,2065732.293,-38.05576225,178.306818
10,"East Coast",205,"Te Teko","Te Kura o Te Teko School Hall, 6 Te Teko Road",5783605.798,1933313.705,-38.03395999,176.7974761
10,"East Coast",206,"Thornton","Thornton School Hall, 43 Eastbank Road",5795426.007,1939592.929,-37.9253373,176.8632827
10,"East Coast",600,"Tikitiki","Tikitiki School, 33 Rangitukia Road",5803310.887,2076721.44,-37.79316676,178.4126049
10,"East Coast",602,"Tokomaru Bay","Hatea-A-Rangi School, 6 School Road",5766182.831,2065979.43,-38.1318986,178.315159
10,"East Coast",603,"Tolaga Bay","Tolaga Bay Area School, Resolution Street",5739508.41,2063133.487,-38.3727377,178.3002325
10,"East Coast",604,"Torere","Te Kura o Torere, 2276 State Highway 35",5790459.375,1994918.26,-37.94764433,177.4937416
10,"East Coast",574,"Waimana","Nukuhou North School, State Highway 2",5772075.226,1961738.108,-38.12671612,177.1264065
10,"East Coast",609,"Waimana","Waimana School, 6 Raroa Road",5770466.592,1956909.304,-38.14309822,177.0722576
10,"East Coast",610,"Wainui","Wainui Beach School, 56 Wairere Road",5706083.663,2041540.836,-38.68368723,178.0751221
10,"East Coast",2049,"Waiohau","Te Kura Kaupapa Māori O Waiohau, 2481 Galatea Road",5762391.792,1936335.163,-38.22360965,176.8418295
10,"East Coast",210,"Whakatane","Allandale School, 167 King Street",5790157.568,1949940.694,-37.96878602,176.983304
10,"East Coast",211,"Whakatane","District Council, 9 Commerce Street",5791932.434,1951107.394,-37.95237807,176.9956885
10,"East Coast",213,"Whakatane","Reads Auction Hall, 17 King Street",5791172.737,1949917.142,-37.95966757,176.9825427
10,"East Coast",215,"Whakatane","Salvation Army Hall, 87 King Street",5790813.283,1949897.654,-37.96290698,176.9824962
10,"East Coast",591,"Whakatane","Te Whare Kura o Ruatoki, 16 Mission Road",5770263.414,1951288.49,-38.14712946,177.0083714
10,"East Coast",212,"Whakatane","Whakatane Intermediate School Hall, 101 James Street",5791041.976,1948846.079,-37.96125506,176.9704429
10,"East Coast",617,"Whangara","Whangara School, 44 Pa Road",5719540.404,2054564.352,-38.55633603,178.2154695
10,"East Coast",618,"Whatatutu","Whatatutu School, 24 Te Hau Road",5741081.74,2022486.186,-38.37870409,177.8357172
10,"East Coast",619,"Woodlands","Woodlands School, 168 Dip Road",5781334.063,1974176.228,-38.03843475,177.2630901
11,"East Coast Bays",3202,"Albany","Albany Community Hall, 3/21 Library Lane",5934098.266,1751550.126,-36.72673857,174.6971429
11,"East Coast Bays",3206,"Albany","Albany Primary School, 6 Bass Road",5933003.148,1750948.472,-36.73670244,174.6906243
11,"East Coast Bays",2927,"Albany","Massey University, Building 82, Gate 4, Turitea Place (off Old Albany Highway)",5933223.391,1751134.142,-36.7346883,174.6926594
11,"East Coast Bays",3610,"Albany","Oteha Valley School, Medallion Drive (off Oteha Valley Road)",5935137.865,1753336.747,-36.71708403,174.7169338
11,"East Coast Bays",2922,"Albany","Pinehurst School,  75 Bush Road",5932708.651,1752138.94,-36.73916598,174.7040109
11,"East Coast Bays",3375,"Browns Bay","Browns Bay Red Cross Centre, 5 Wilks Lane",5935066.923,1755564.587,-36.7173609,174.7418833
11,"East Coast Bays",5,"Browns Bay","Browns Bay School, 2- 4 Masterton Road",5934564.068,1755803.676,-36.72185276,174.7446618
11,"East Coast Bays",4,"Browns Bay","Crossroads Church, 5 Bayview Road",5935548.854,1756227.576,-36.71290954,174.7492053
11,"East Coast Bays",3612,"Browns Bay","Northcross Intermediate School, 10 Sartors Avenue",5935443.884,1754320.998,-36.71416712,174.7278883
11,"East Coast Bays",2921,"Browns Bay","Pinehill School, Hugh Green Drive",5934067.067,1753376.98,-36.72672627,174.717599
11,"East Coast Bays",3812,"Browns Bay","Progress Hall (under Bays Club),  6 Anzac Road",5935098.815,1756187.526,-36.71697127,174.748849
11,"East Coast Bays",12,"Long Bay","Long Bay Baptist Church, 282 Glenvar Road",5937642.868,1754429.382,-36.69433498,174.7286574
11,"East Coast Bays",13,"Long Bay","Long Bay College, 20 Ashley Avenue",5937952.738,1755337.625,-36.6913948,174.738757
11,"East Coast Bays",14,"Mairangi Bay","Rangitoto College, 564 East Coast Road",5932874.693,1755060.277,-36.7371969,174.7366837
11,"East Coast Bays",3616,"Murrays Bay","Murrays Bay Intermediate School, 37 Sunrise Avenue",5933154.154,1755777.619,-36.73456128,174.7446576
11,"East Coast Bays",2982,"Redvale","East Coast Bays Bible Baptist Church, 1092 East Coast Road",5937063.935,1753474.697,-36.6997063,174.7180913
11,"East Coast Bays",3811,"Torbay","Glamorgan School, 145 Glamorgan Drive",5936746.235,1755034.191,-36.70231583,174.7356064
11,"East Coast Bays",18,"Torbay","Torbay School, 60 Deep Creek Road",5936417.173,1755943.785,-36.70513204,174.7458521
11,"East Coast Bays",3476,"Torbay","Torbay Senior Citizens Club, Torbay Shopping Centre, 37 Watea Road",5937465.999,1756389.539,-36.69560814,174.750626
12,"Epsom",622,"Epsom","Auckland Grammar School, 85 Mountain Road",5918153.317,1757661.185,-36.86941422,174.7688506
12,"Epsom",623,"Epsom","Epsom Girls Grammar School, 14 Silver Road",5917282.5,1758217.895,-36.87716742,174.7752754
12,"Epsom",624,"Epsom","Epsom Normal School, 41 The Drive",5915783.705,1757767.933,-36.8907473,174.7705407
12,"Epsom",625,"Epsom","Sacred Heart Parish Hall, 19 Banff Avenue",5915046.761,1757769.411,-36.89738712,174.7707107
12,"Epsom",626,"Epsom","St George's Church Hall, 19 Ranfurly Road",5916390.119,1758494.67,-36.88516158,174.7785661
12,"Epsom",627,"Greenlane","Cornwall Park District School, corner Greenlane West & Wheturangi Roads",5915553.196,1759503.276,-36.8925325,174.7900554
12,"Epsom",3108,"Mt Eden","Auckland Normal Intermediate, 24 Poronui Street",5916386.821,1757347.753,-36.8853832,174.7657021
12,"Epsom",628,"Mt Eden","Auckland Provincial Guide Centre, 132 Grange Road",5916903.991,1755955.821,-36.88095433,174.7499826
12,"Epsom",3683,"Mt Eden","Ficino School, 27 Esplanade Road",5917781.719,1756851.989,-36.87289721,174.7598527
12,"Epsom",631,"Mt Eden","Mt Eden Normal Primary School, 73 Valley Road",5917370.082,1756518.844,-36.87666149,174.7562014
12,"Epsom",633,"Mt Eden","Valley Road International Church Hall, 393 Mt Eden Road",5916971.972,1756946.607,-36.88017759,174.7610814
12,"Epsom",4047,"Parnell","Holy Trinity Cathedral, corner St Stephens Avenue & Parnell Road",5919256.883,1758961.348,-36.85925285,174.7832
12,"Epsom",634,"Parnell","Jubilee Hall, Parnell Community Centre, 545 Parnell Road",5918808.309,1758673.789,-36.86334297,174.7800694
12,"Epsom",635,"Parnell","Parnell District School, 48 St Stephens Avenue",5919716.644,1759366.901,-36.85504196,174.7876509
12,"Epsom",637,"Remuera","Remuera Intermediate School, 64-72 St Vincent Avenue",5916228.878,1760363.869,-36.88629864,174.7995663
12,"Epsom",3646,"Remuera","Remuera Primary School, 25-33 Dromorne Road",5916768.718,1759802.823,-36.88152975,174.7931594
12,"Epsom",3825,"Remuera","Somervell Presbyterian Church and Community Centre, 497 Remuera Road",5916654.279,1761074.976,-36.88234463,174.8074522
12,"Epsom",3670,"Remuera","St Mark's Church Hall, 95 Remuera Road",5917775.418,1758691.864,-36.87264655,174.7804881
12,"Epsom",644,"Remuera","Victoria Avenue School, 250 Victoria Avenue",5918537.726,1760360.226,-36.86549616,174.7990373
13,"Hamilton East",4124,"Silverdale","St John's College, 85 Hillcrest Road",5814830.111,1803978.405,-37.79114217,175.3165734
13,"Hamilton East",3090,"Flagstaff","Alandale Retirement Village, 1199 River Road",5820843.901,1798374.811,-37.73821416,175.2513362
13,"Hamilton East",2925,"Rototuna","Chapel Hill Community Church, 2 Cate Road",5821440.398,1799882.23,-37.73251406,175.2682675
13,"Hamilton East",648,"Chartwell","Chartwell Cooperating Parish Hall, corner Comries Road & Belmont Avenue",5819199.085,1800665.92,-37.75252825,175.2777732
13,"Hamilton East",656,"Fairfield","Fairfield Baptist Church, 1101 Heaphy Terrace",5817506.974,1800859.589,-37.7677251,175.280438
13,"Hamilton East",657,"Fairfield","Fairfield College, 25 Bankwood Road",5818181.633,1800533.463,-37.76172061,175.2765517
13,"Hamilton East",658,"Fairfield","Fairfield Intermediate School, 261 Clarkin Road",5817982.751,1801285.959,-37.76334646,175.2851433
13,"Hamilton East",2923,"Hamilton East","Graceways Church, 69 Grey Street",5813777.221,1802278.669,-37.80100233,175.2975777
13,"Hamilton East",666,"Hamilton East","Hamilton East Primary School, 7 Dawson Street",5815315.702,1801684.166,-37.78727825,175.290402
13,"Hamilton East",678,"Silverdale","Hillcrest High School, Masters Avenue",5814571.33,1804828.139,-37.79328259,175.3262896
13,"Hamilton East",669,"Hillcrest","Hillcrest Normal School, 218 Cambridge Road",5813712.384,1804360.326,-37.80112285,175.3212227
13,"Hamilton East",646,"Chartwell","Hukanui School, corner Hukanui Road & Pickering Crescent",5819682.379,1800779.195,-37.74815079,175.2789245
13,"Hamilton East",652,"Fairfield","Insoll Avenue School, 95 Insoll Avenue",5818124.321,1802276.992,-37.76185283,175.2963465
13,"Hamilton East",668,"Hillcrest","Knighton Normal School, 45 Knighton Road",5814632.16,1803400.659,-37.79305369,175.3100724
13,"Hamilton East",3289,"Hamilton East","Marian Catholic School, 119 Firth Street",5814926.204,1802074.865,-37.79069975,175.2949442
13,"Hamilton East",650,"Claudelands","Peachgrove Intermediate School, 72 Peachgrove Road",5815582.894,1802415.949,-37.78471013,175.2986317
13,"Hamilton East",3288,"Rototuna","Rototuna Primary School, 23 Strathmore Drive",5821420.598,1800651.452,-37.73252413,175.2769958
13,"Hamilton East",653,"Claudelands","Southwell School, 200 Peachgrove Road",5816678.997,1802302.229,-37.77486383,175.2970356
13,"Hamilton East",651,"Claudelands","St Aidan's Parish Hall, 24 Thames Street",5816450.418,1801315.329,-37.77714029,175.2859015
13,"Hamilton East",654,"Enderley","Te Kura Kaupapa Māori O Te Ara Rima School, 31 Fifth Avenue",5817085.932,1802193.573,-37.77122302,175.2956894
13,"Hamilton East",4114,"Rototuna","Waikato Waldorf School, 85 Barrington Drive",5822188.148,1801090.149,-37.72551521,175.2817583
13,"Hamilton East",3290,"Fairfield","Wesley Methodist Hall, 955 Heaphy Terrace",5816885.232,1801125.617,-37.77326608,175.2836284
13,"Hamilton East",660,"Fairfield","Woodstock Primary School, 43 Fairfield Road",5817381.21,1800385.668,-37.76896172,175.275096
14,"Hamilton West",705,"Beerescourt","Vardon School, 36 Cunningham Road",5818041.921,1798804.264,-37.76335639,175.2569733
14,"Hamilton West",681,"Deanwell","Deanwell School, 49 Deanwell Avenue",5811729.681,1800294.286,-37.81987995,175.2756207
14,"Hamilton West",682,"Dinsdale","Aberdeen School, 48-62 Aberdeen Drive",5815225.305,1797527.294,-37.78900043,175.2432532
14,"Hamilton West",3413,"Dinsdale","Fraser High School, 72 Ellicott Road",5815745.644,1797670.529,-37.78428313,175.2447369
14,"Hamilton West",3581,"Dinsdale","St Clare Co-operating Parish Hall, 97 Tuhikaramea Road",5813970.537,1797868.287,-37.80022743,175.2474655
14,"Hamilton West",684,"Forest Lake","Forest Lake School, 59 Storey Avenue",5817269.573,1798694.423,-37.77033623,175.2559386
14,"Hamilton West",687,"Frankton","Frankton School Hall, 206 Massey Street",5814740.036,1798078.164,-37.79325164,175.2496374
14,"Hamilton West",686,"Frankton","Rhode Street School, 7 Rhode Street",5814091.151,1798252.196,-37.7990579,175.25179
14,"Hamilton West",685,"Frankton","Westside First  Church Hall, 11 King Street",5815474.086,1799955.494,-37.78623173,175.2707411
14,"Hamilton West",689,"Glenview","Glenview Primary School, 68 Bruce Avenue",5812101.831,1801650.063,-37.81622985,175.2909093
14,"Hamilton West",4121,"Hamilton City","Electorate Headquarters, 12 Ward Street",5815466.674,1800872.744,-37.78609732,175.2811521
14,"Hamilton West",690,"Hamilton West","Hamilton West School, 36 Hammond Street",5814034.375,1801026.963,-37.79896276,175.2832993
14,"Hamilton West",671,"Horsham Downs","Horsham Downs School, 4 Martin Lane",5825108.701,1798270.082,-37.6998265,175.2489864
14,"Hamilton West",692,"Maeroa","Maeroa Intermediate School, 57 Churchill Avenue",5816391.974,1799088.875,-37.77815427,175.2606547
14,"Hamilton West",693,"Melville","Melville Intermediate, 29 Mountview Road",5812472.558,1800749.265,-37.81308962,175.2805802
14,"Hamilton West",3358,"Melville","Melville Methodist Church Hall, 4 Bader Street",5812940.508,1801295.699,-37.80875495,175.2866533
14,"Hamilton West",695,"Melville","Melville Primary School, 101 Ohaupo Road",5812338.909,1801002.533,-37.81423754,175.2834924
14,"Hamilton West",696,"Nawton","Crawshaw School, Crawshaw Drive",5816919.264,1796600.478,-37.77394389,175.2322759
14,"Hamilton West",698,"Nawton","Good News Community Hall, 78 Breckons Avenue",5816678.787,1796974.932,-37.77602911,175.2365899
14,"Hamilton West",697,"Nawton","Nawton School, 58 Livingstone Avenue",5816240.369,1797417.712,-37.77988213,175.2417333
14,"Hamilton West",2926,"Pukete","Pukete School, 110 Pukete Road",5820097.204,1797395.746,-37.74515085,175.2404355
14,"Hamilton West",700,"Pukete","Te Rapa Primary School, 63 Ashurst Avenue",5820812.777,1797018.544,-37.73878739,175.2359633
14,"Hamilton West",3559,"Rototuna North","Te Totara Primary School, 31 Hector Drive",5822845.591,1799796.009,-37.71987736,175.2669038
14,"Hamilton West",703,"St Andrews","All Saints Church Hall, 191 Sandwich Road",5819696.382,1798210.558,-37.74858467,175.2497864
14,"Hamilton West",704,"St Andrews","Hamilton Junior High School, 90 Heath Street",5818955.773,1798571.792,-37.75517649,175.2540861
14,"Hamilton West",4126,"Te Rapa","The Base (between Briscoes and Rebel Sport), 1 Pacific Crescent",5819623.966,1796631.548,-37.74957756,175.231896
14,"Hamilton West",707,"Templeview","Church College of New Zealand, Reception Foyer, 435 Tuhikaramea Road",5811862.208,1795997.056,-37.81961928,175.2267966
14,"Hamilton West",3387,"Waikato Hospital","Meade Clinical Centre, Level One (adjacent to Reception A), Pembroke Street",5813390.038,1800912.914,-37.80479077,175.2821835
14,"Hamilton West",709,"Whitiora","Whitiora School, 38 Willoughby Street",5816212.197,1799911.347,-37.77959386,175.2700367
15,"Helensville",1932,"Coatesville","Coatesville School, 24 Mahoenui Valley Road",5935155.37,1746855.529,-36.71795081,174.644387
15,"Helensville",1933,"Dairy Flat","Dairy Flat School, 1220 State Highway 17",5940730.712,1746459.931,-36.66777141,174.6388921
15,"Helensville",2519,"Helensville","Helensville Primary School Hall, corner Rata & Garfield Roads",5939798.953,1729773.972,-36.67859136,174.4523913
15,"Helensville",2889,"Henderson","Henderson Valley Primary School, 389 Henderson Valley Road",5915143.098,1741867.932,-36.89904448,174.59229
15,"Helensville",3828,"Herald Island","Herald Island Community Hall, 57 Ferry Parade",5928206.392,1747864.755,-36.78041166,174.6570296
15,"Helensville",2523,"Huapai","Huapai District School Hall, 40 Station Road",5929088.355,1737159.602,-36.77407428,174.5369455
15,"Helensville",2328,"Huia","Huia Hall, 1253 Huia Road",5903415.245,1739001.243,-37.00515267,174.5622834
15,"Helensville",1934,"Kaukapakapa","Kaukapakapa Villiage Hall, 947 Kaipara Coast Highway",5946475.663,1733675.13,-36.61788117,174.494875
15,"Helensville",2524,"Kumeu","Kumeu Baptist Youth Hall, 21 Access Road",5928577.906,1738854.348,-36.77842733,174.5560227
15,"Helensville",2332,"Laingholm","Laingholm Primary School, 54 Victory Road",5908055.959,1744859.45,-36.96245128,174.6272111
15,"Helensville",2530,"Muriwai","Muriwai Fire Station, corner Coast & Motutara Roads",5923634.577,1727852.517,-36.82452476,174.4336013
15,"Helensville",2531,"Oratia","Oratia District School, 1 Shaw Road",5913548.234,1744346.734,-36.91303968,174.6204054
15,"Helensville",3394,"Parakai","Haranui Marae, Haranui Road",5945236.064,1723779.076,-36.63038975,174.3844387
15,"Helensville",2532,"Parakai","Parakai School, 10 Fordyce Road",5941526.971,1728059.769,-36.66325071,174.4329231
15,"Helensville",1943,"Paremoremo","Ridgeview School, 1 Cutts Crescent",5931077.524,1747140.941,-36.75465247,174.6483673
15,"Helensville",2533,"Piha","Barnett Hall, 2 North Piha Road",5910486.388,1730421.03,-36.94266106,174.4646552
15,"Helensville",2534,"Riverhead","Riverhead School, 21 School Road",5931318.492,1742286.159,-36.75322194,174.5939554
15,"Helensville",2536,"Taupaki","Taupaki School, 14 Cottle Road",5923953.464,1737754.932,-36.82026076,174.5445433
15,"Helensville",2347,"Titirangi","Woodlands Park School, 202 Woodlands Park Road",5909822.232,1745112.969,-36.94649662,174.6297186
15,"Helensville",2537,"Waiatarua","Waiatarua Community Hall, 911 West Coast Road",5911553.356,1740715.173,-36.93156475,174.5800235
15,"Helensville",2538,"Waimauku","Waimauku School, 2 Muriwai Road",5929609.959,1733096.299,-36.7699532,174.4913372
15,"Helensville",1954,"Wainui","Wainui School, 492 Waitoki Road",5947537.919,1742373.199,-36.60704881,174.5919148
15,"Helensville",2539,"Waioneke","Waioneke School, 1981 South Head Road",5955101.04,1716126.331,-36.54244311,174.2973761
15,"Helensville",2540,"Waitakere","Waitakere Primary School, 10 Bethells Road",5920446.06,1737254.086,-36.85194025,174.539563
15,"Helensville",1955,"Waitoki","Waitoki School Hall, 1119 Kahikatea Flat Road",5944448.352,1738532.433,-36.63545693,174.5495418
15,"Helensville",3570,"Westgate","Massey Presbyterian Church, 510 Don Buck Road",5923247.927,1743370.47,-36.82578406,174.6076171
15,"Helensville",2543,"Whenuapai","Whenuapai School, 14 Airport Road",5926841.572,1744437.018,-36.79323906,174.6188899
15,"Helensville",2544,"Whenuapai","Whenuapai Village Hall, 41 Waimarie Road",5928556.871,1746082.587,-36.77752995,174.6369982
16,"Hunua",711,"Ararimu","Ararimu School, corner Steel & Ararimu Roads",5887581.874,1780937.748,-37.14065167,175.0371966
16,"Hunua",1692,"Awhitu","Awhitu District School, corner Matakawa & Awhitu Roads",5891450.51,1743566.32,-37.11227757,174.6158589
16,"Hunua",713,"Beachlands","Beachlands School, 18 Bell Road (disabled access from Wakelin Road)",5916055.83,1778186.858,-36.88466118,174.9995073
16,"Hunua",714,"Bombay","Bombay School, 35 Paparata Road",5882681.33,1777091.703,-37.18553544,174.9950782
16,"Hunua",715,"Brookby","Brookby School, corner Brookby & West Roads",5904663.056,1777456.59,-36.98743695,174.9939904
16,"Hunua",1693,"Buckland","Buckland School, 72 George Crescent",5878058.67,1770893.961,-37.22833601,174.926351
16,"Hunua",716,"Clarks Beach","Church By The Seashore, 14-16 Torkar Road",5888819.698,1751558.468,-37.13472196,174.7063084
16,"Hunua",717,"Clevedon","Clevedon School, 13-17 North Road",5904259.924,1781452.552,-36.99030612,175.0389624
16,"Hunua",3790,"Flat Bush","Mission Heights Primary School, 103 Jeffs Road",5907642.16,1771915.637,-36.96162654,174.9310837
16,"Hunua",4048,"Flat Bush","Ormiston Senior College, 275 Ormiston Road",5907063.849,1770763.195,-36.96704657,174.918276
16,"Hunua",1696,"Glenbrook","Glenbrook Primary School, 459 Glenbrook Road",5880919.302,1755409.828,-37.20527218,174.7512928
16,"Hunua",720,"Hunua","Hunua School, 39 Lockwood Road",5894262.053,1784426.25,-37.07979297,175.0748077
16,"Hunua",724,"Kawakawa Bay","Kawakawa Bay Public Hall, 9 Kawakawa-Orere Road",5908516.76,1793245.989,-36.94961093,175.1703106
16,"Hunua",727,"Maraetai","Maraetai Beach School, 154 Maraetai Drive",5916637.651,1781535.757,-36.87878147,175.036926
16,"Hunua",1706,"Mauku","Mauku School, 389 Union Road",5880786.601,1761573.878,-37.20542064,174.820752
16,"Hunua",728,"Orere Point","Orere School, 289 Orere Point Road",5905259.197,1798146.114,-36.9779357,175.2261603
16,"Hunua",3757,"Paerata","Paerata Community Centre, 1022 Paerata Road",5885141.726,1768135.811,-37.16502496,174.8936811
16,"Hunua",741,"Paparimu","Paparimu School, 7 Matheson Road",5886791.834,1788873.976,-37.14619928,175.1266958
16,"Hunua",1719,"Patumahoe","Patumahoe School, 38 Patumahoe Road",5882765.585,1762668.223,-37.18740081,174.8326471
16,"Hunua",1723,"Pukekohe","Pukekohe East School, 137 Runciman Road",5882889.077,1772651.108,-37.18449556,174.94503
16,"Hunua",1724,"Pukekohe","Pukekohe Hill School, corner Ward Street & Green Lane",5879982.236,1767909.354,-37.21154865,174.8922917
16,"Hunua",1725,"Pukekohe","Pukekohe Intermediate School, 44 Queen Street",5880847.799,1768750.776,-37.20359883,174.9015738
16,"Hunua",1726,"Pukekohe","Pukekohe North School, corner Princes Street & Beatty Road",5881723.929,1768271.157,-37.19579224,174.8959744
16,"Hunua",3789,"Pukekohe","St Josephs Primary School, 94 Seddon Street",5881693.831,1768760.22,-37.1959751,174.9014889
16,"Hunua",3974,"Pukekohe","The Playhouse Pre-School, 41 Twomey Drive, Newsham Park",5882661.894,1770593.463,-37.18692048,174.9219131
16,"Hunua",1728,"Pukekohe","Valley School, East Street",5881513.677,1769760.571,-37.1974167,174.9127955
16,"Hunua",1731,"Puni","Puni School, 357 Waiuku Road",5877741.049,1764538.429,-37.23234101,174.8548152
16,"Hunua",742,"Ramarama","Ramarama School, 126 Ararimu Road",5887518.219,1775296.552,-37.14229957,174.9737316
16,"Hunua",746,"Waiau Pa","Waiau Pa School, Events Centre, 571 Waiau Pa Road",5888363.289,1755609.058,-37.1381691,174.7519873
16,"Hunua",1749,"Waipipi","Waipipi School, 100 Creamery Road",5880041.053,1748665.858,-37.21428446,174.6755012
16,"Hunua",1754,"Waiuku","Sandspit Road School, 60 Sandspit Road",5877054.952,1752905.99,-37.2405037,174.7238816
16,"Hunua",3975,"Waiuku","View Road School, 16 View Road",5876367.269,1753668.231,-37.24657428,174.7326135
16,"Hunua",1752,"Waiuku","Waiuku College, 43 Constable Road",5875885.274,1753048.094,-37.25101912,174.7257234
16,"Hunua",1753,"Waiuku","Waiuku Primary School, George Street",5875146.434,1753670.389,-37.25757354,174.7328898
16,"Hunua",747,"Whitford","Whitford Hall, 1 Whitford-Maraetai Road",5909462.912,1775307.05,-36.94459755,174.9687359
17,"Hutt South",748,"Alicetown","Hutt Central School, 6 Railway Avenue",5435935.261,1758596.61,-41.21243073,174.8918167
17,"Hutt South",750,"Avalon","Dyer Street School, 59 Dyer Street",5436997.779,1762349.57,-41.20212115,174.9362775
17,"Hutt South",4105,"Belmont","Belmont Hall, 711 Western Hutt Road",5438204.147,1761675.291,-41.19139534,174.9279212
17,"Hutt South",3785,"Belmont","Maranatha School, 180 Hill Road",5439105.932,1760487.925,-41.18351276,174.9135334
17,"Hutt South",1490,"Belmont","Raphael House, 27 Matuhi Street",5437757.077,1759948.813,-41.19576302,174.9074614
17,"Hutt South",751,"Boulcott","Boulcott School, 9 Boulcott Street",5437106.923,1761135.638,-41.20138102,174.9217785
17,"Hutt South",752,"Days Bay","Wellesley College, 611 Marine Drive",5428568.403,1759732.462,-41.27853017,174.9072868
17,"Hutt South",753,"Eastbourne","Muritai School, 160 Muritai Road",5427106.589,1758848.293,-41.29186505,174.8971162
17,"Hutt South",3699,"Epuni","Congregational Christian Church Hall of Samoa, 37 Mitchell Street",5436564.847,1761884.532,-41.20611185,174.9308488
17,"Hutt South",756,"Epuni","Epuni School Hall, 313 Waiwhetu Road",5436210.832,1762088.473,-41.20925817,174.9333738
17,"Hutt South",757,"Gracefield","Gracefield School, 20A Bell Road",5433756.098,1760545.202,-41.23166529,174.9156207
17,"Hutt South",4094,"Harbourview","Garage, 12 Panorama Grove",5437054.618,1759063.955,-41.2022615,174.8970973
17,"Hutt South",758,"Hutt Central","Eastern Hutt School, 83 Kings Crescent",5436347.045,1760305.577,-41.20838686,174.9120833
17,"Hutt South",759,"Hutt Central","Hutt Hospital, 640 High Street",5436845.921,1761212.601,-41.20371546,174.9227647
17,"Hutt South",760,"Hutt Central","Hutt Intermediate School, 7 Kauri Street",5435584.055,1760417.467,-41.2152338,174.9136174
17,"Hutt South",761,"Hutt Central","Hutt Valley High School, 84 Woburn Road",5435466.181,1759395.503,-41.21649691,174.9014636
17,"Hutt South",762,"Hutt Central","Knox Presbyterian Church Hall, 574 High Street",5436817.966,1760838.619,-41.2040415,174.918314
17,"Hutt South",763,"Hutt Central","St Bernard's College, 183 Waterloo Road",5436126.005,1760687.522,-41.21030113,174.9166947
17,"Hutt South",764,"Hutt Central","Sts Peter and Paul School, Myrtle Street",5436036.114,1759804.556,-41.2112852,174.9061917
17,"Hutt South",1500,"Kelson","Kelson School Hall, 52 Taieri Crescent",5439388.732,1762137.895,-41.18063829,174.9331208
17,"Hutt South",1505,"Korokoro","Korokoro School Hall, 79 Korokoro Road",5435604.518,1756525.68,-41.21581155,174.867211
17,"Hutt South",1508,"Maungaraki","Garage, 66 Oakleigh Street",5437077.365,1757357.828,-41.20239005,174.8767536
17,"Hutt South",3468,"Maungaraki","Maungaraki Community Centre, 135 Dowse Drive",5436304.381,1757474.713,-41.20932656,174.878346
17,"Hutt South",3010,"Moera","Randwick School, 59 Randwick Road",5434036.202,1759631.29,-41.2293244,174.9046485
17,"Hutt South",1514,"Normandale","St Aidans-On-The-Hill Church Hall, 2 Stratton Street",5437285.258,1758236.809,-41.2003471,174.8871777
17,"Hutt South",771,"Petone","Petone Central School, 16 Britannia Street",5434662.426,1757599.482,-41.22408486,174.8802569
17,"Hutt South",3854,"Petone","St Augustine's Cub Group Hall, 71 Udy Street",5434914.368,1758018.493,-41.22173491,174.8851882
17,"Hutt South",773,"Petone","Wilford School, 100 William Street",5434717.319,1758479.446,-41.22341879,174.8907357
17,"Hutt South",774,"Point Howard","Tennis Club/Playcentre, 29 Ngaumatau Road",5431522.237,1760085.897,-41.25186741,174.9107291
17,"Hutt South",775,"Wainuiomata","Arakura School, 209 Wellington Road",5432559.829,1762922.906,-41.24195952,174.9442951
17,"Hutt South",776,"Wainuiomata","Fernlea School, 25a Lees Grove",5430113.989,1762332.565,-41.26409736,174.9379048
17,"Hutt South",3076,"Wainuiomata","Holy Trinity Church, 40 Wainuiomata Road",5430538.941,1762579.614,-41.260222,174.9407391
17,"Hutt South",3291,"Wainuiomata","Pukeatua School, 19 Frederick Street",5431259.811,1763367.69,-41.25357336,174.9499482
17,"Hutt South",2932,"Wainuiomata","St Peter's Church, 29 Wise Street",5431386.795,1763457.706,-41.25241198,174.950988
17,"Hutt South",780,"Wainuiomata","Wainuiomata Intermediate School, 66 Konini Street",5431393.996,1761950.782,-41.25265046,174.9330097
17,"Hutt South",782,"Wainuiomata","Wainuiomata Primary School, 5 Homedale Road",5428831.831,1763802.29,-41.27534346,174.955785
17,"Hutt South",3292,"Wainuiomata","Wainuiomata Union Church, 106 Main Road",5429311.844,1763596.375,-41.27106385,174.9531989
17,"Hutt South",787,"Waiwhetu","Our Lady of the Rosary School, 12 Wainui Road",5434495.4,1760485.469,-41.22502132,174.9147141
17,"Hutt South",2933,"Waiwhetu","St Paul's Parish Hall, 76 Waiwhetu Road",5434954.026,1760806.36,-41.22082868,174.9184198
17,"Hutt South",786,"Waiwhetu","Waiwhetu Marae Meeting House, 4 Puketapu Grove",5434623.019,1760945.303,-41.22378105,174.9201637
17,"Hutt South",790,"Waterloo","Waterloo School, 26 Hardy Street",5435546.945,1761319.413,-41.21538863,174.9243807
18,"Ilam",792,"Avonhead","Avonhead Kindergarten, 49 Staveley Street",5181335.517,1564129.057,-43.52005637,172.5561494
18,"Ilam",794,"Avonhead","Avonhead Primary School Hall, 55 Avonhead Road",5180887.693,1564401.973,-43.52410164,172.5594969
18,"Ilam",793,"Avonhead","Merrin School Hall, 41 Merrin Street",5182398.131,1564319.95,-43.51049773,172.5585811
18,"Ilam",2934,"Avonhead","St Mark's Presbyterian Church, 150 Withells Road",5181892.308,1563984.091,-43.51503605,172.5543926
18,"Ilam",2411,"Bishopdale","Bishopdale School Hall, 465 Greers Road",5185062.215,1567351.727,-43.48664876,172.5962479
18,"Ilam",2407,"Bishopdale","Breens Intermediate School Hall, 85 Breens Road",5184960.221,1565816.308,-43.4874985,172.5772539
18,"Ilam",2408,"Bishopdale","Cotswold School Hall, 44 Cotswold Avenue",5185485.876,1566663.989,-43.48280373,172.587769
18,"Ilam",2409,"Bishopdale","Isleworth School Hall, 59a Farrington Avenue",5184438.325,1566188.588,-43.49221462,172.5818253
18,"Ilam",2935,"Bishopdale","St Margaret's Church, The Hub, 94 Farrington Avenue",5184509.258,1566544.337,-43.49159194,172.5862294
18,"Ilam",798,"Bryndwr","St Stephen's Presbyterian Church Hall, corner Ilam & Aorangi Roads",5182605.113,1566455.136,-43.50873298,172.5850088
18,"Ilam",800,"Bryndwr","Wairakei School Hall, 250 Wairakei Road",5183620.739,1566705.014,-43.4995994,172.5881622
18,"Ilam",801,"Burnside","Burnside Elim Community Church, 193 Grahams Road",5183439.785,1565800.358,-43.50118787,172.5769611
18,"Ilam",802,"Burnside","Burnside High School, J Block, 151 Greers Road (Memorial Avenue entrance)",5182637.157,1565691.147,-43.50840976,172.5755596
18,"Ilam",804,"Burnside","Roydvale School Hall, 117 Roydvale Avenue",5184178.484,1564679.752,-43.49448447,172.5631479
18,"Ilam",4103,"Burnside","St Timothy Church Hall, 46 Kendal Avenue",5183825.616,1565535.887,-43.49770168,172.5737142
18,"Ilam",805,"Fendalton","Christchurch Boys' High School, Big Room, Te Kura Street",5180867.236,1567732.515,-43.52443719,172.600708
18,"Ilam",807,"Fendalton","Fairleigh Kindergarten, 27a Garden Road",5181460.604,1568528.386,-43.51912843,172.6105906
18,"Ilam",3716,"Fendalton","Fendalton Open Air School Staffroom, 168 Clyde Road",5181792.432,1566953.975,-43.51607264,172.5911305
18,"Ilam",808,"Fendalton","Medbury School Hall, corner Clyde & Creyke Roads",5181145.67,1566794.056,-43.52188901,172.5891124
18,"Ilam",810,"Fendalton","St Barnabas Church Hall, corner Fendalton Road & Tui Street",5181415.588,1567441.807,-43.51948718,172.5971436
18,"Ilam",2936,"Harewood","Harewood Playcentre, 719 Harewood Road",5185825.873,1564386.82,-43.47963739,172.5596327
18,"Ilam",811,"Ilam","Ilam School Hall, 66 Ilam Road",5180639.838,1566035.369,-43.52640941,172.5796931
18,"Ilam",3943,"Ilam","Ao Tawhiti Unlimited Discovery, classroom S5, corner Parkstone Avenue & Oak Drive",5181055.653,1565094.708,-43.52262203,172.5680796
18,"Ilam",813,"Ilam","Westburn School Hall, 257 Waimairi Road",5182220.226,1565315.578,-43.51214648,172.5708869
18,"Ilam",2937,"Merivale","Heaton Normal Intermediate School Hall, 125-133 Heaton Street",5182496.225,1568981.184,-43.50982257,172.6162522
18,"Ilam",815,"Merivale","Rangi Ruru Girls' School, Helen Kitson Function Centre, Rhodes Street entrance",5181279.961,1569148.228,-43.52078082,172.6182497
18,"Ilam",819,"Papanui","St Paul's Anglican Church Parish Hall, 1 Harewood Road",5183859.687,1568204.435,-43.49751319,172.6067226
18,"Ilam",820,"Papanui","Waimairi School Hall, 1 Tillman Avenue",5183047.99,1568037.754,-43.50481467,172.6046133
18,"Ilam",822,"Riccarton","St Ninian's Presbyterian Church Hall, 9 Puriri Street",5180238.177,1566997.321,-43.53006912,172.5915724
18,"Ilam",826,"Upper Riccarton","Villa Maria College Hall, 21 Peer Street (Brodie Street entrance)",5180423.887,1565056.743,-43.52830868,172.5675692
19,"Invercargill",827,"Bluff","Bluff School, 39 Bradshaw Street",4828485.546,1243452.545,-46.60236156,168.344306
19,"Invercargill",828,"Bluff","St Teresa's School, 181 Foyle Street",4828707.007,1242714.09,-46.59998282,168.3348669
19,"Invercargill",3560,"Brydone","Brydone Community Hall, 12 Brydone-Glencoe Road",4868988.738,1276786.29,-46.25570249,168.8063344
19,"Invercargill",3505,"Colac Bay","Colac Bay Fire Station, 16 Colac Bay Road",4853037.714,1206000.201,-46.36137701,167.8779197
19,"Invercargill",3561,"Dacre","Dacre Coronation Hall, corner Baird Road & Edendale-Woodlands Highway",4861234.399,1261388.874,-46.31779106,168.6015612
19,"Invercargill",309,"Edendale","Edendale School, 24 Salford Street",4862672.597,1275332.098,-46.31170017,168.7831629
19,"Invercargill",314,"Glenham","Glenham School, 22 Glenham School Road",4852969.763,1281014.345,-46.40149012,168.8501674
19,"Invercargill",830,"Gorge Road","Gorge Road School, 4 Factory Road",4844309.709,1269948.319,-46.47389921,168.7004892
19,"Invercargill",322,"Hedgehope","Hedgehope School, 2250 Winton-Hedgehope Highway",4873233.789,1256114.846,-46.20747235,168.5420159
19,"Invercargill",844,"Invercargill","Ascot Community School Hall, 580 Tay Street",4850353.486,1245286.261,-46.40717219,168.384837
19,"Invercargill",3296,"Invercargill","Aurora College, 234 Regent Street",4847687.469,1245383.436,-46.43113855,168.3840751
19,"Invercargill",3304,"Invercargill","CCS Disability Action Southland, 142 Don Street",4849867.172,1243190.776,-46.41043226,168.3572926
19,"Invercargill",3800,"Invercargill","Clarendon Kindergarten, 30 Waiau Place",4846114.706,1244572.046,-46.4448204,168.3723517
19,"Invercargill",3293,"Invercargill","Donovan Primary School, 200 Drury Lane",4853353.198,1241711.076,-46.37838057,168.3407716
19,"Invercargill",840,"Invercargill","Eastside Baptist Church, corner Glengarry Crescent & Yarrow Street",4850878.005,1245233.007,-46.40243908,168.3845441
19,"Invercargill",869,"Invercargill","Elles Road Bible Chapel, 198 Earn Street",4848485.512,1243651.483,-46.42306892,168.3622143
19,"Invercargill",3299,"Invercargill","Fernworth Primary Hall, 288 Pomona Street",4847633.938,1244299.23,-46.43104893,168.3699684
19,"Invercargill",835,"Invercargill","Freedom Community Centre, 464 Yarrow Street",4850831.454,1245012.847,-46.40274116,168.381654
19,"Invercargill",842,"Invercargill","Gladstone Scout Hall, corner Holywood Terrace & Russel Street",4852124.416,1242497.819,-46.38981874,168.3500304
19,"Invercargill",3572,"Invercargill","Grasmere Kindergarten, corner Paterson & Heywood Streets",4852765.577,1241426.942,-46.38350105,168.3366394
19,"Invercargill",3295,"Invercargill","Holy Trinity Anglican Church Hall, 61 King Street",4851223.135,1243765.425,-46.39857191,168.3657772
19,"Invercargill",3728,"Invercargill","Invercargill Public Library, 50 Dee Street",4849742.277,1242419.091,-46.41114498,168.3471898
19,"Invercargill",3298,"Invercargill","James Hargest College Junior Campus, corner Layard Street & Queens Drive",4852135.779,1243549.101,-46.39027135,168.3636673
19,"Invercargill",845,"Invercargill","James Hargest College Senior Campus, 288 Layard Street",4852151.107,1245030.899,-46.39091274,168.3828888
19,"Invercargill",846,"Invercargill","Kew Kindergarten, 51 Selwyn Street",4847767.317,1243074.405,-46.42920671,168.3541804
19,"Invercargill",849,"Invercargill","Knox Presbyterian Church Hall, 107 Pomona Street",4848548.759,1244167.975,-46.42277366,168.3689621
19,"Invercargill",850,"Invercargill","Lindisfarne Kindergarten, 34 Mitchell Street",4850363.512,1243958.598,-46.40638465,168.3676278
19,"Invercargill",3294,"Invercargill","New River School Hall, 407 Ness Street",4847176.969,1243546.67,-46.43475146,168.3598566
19,"Invercargill",3297,"Invercargill","Newfield Park School Hall, 82 Wilfrid Street",4848839.081,1245036.385,-46.42062594,168.3804472
19,"Invercargill",852,"Invercargill","Newfield Public Hall, 707 Tweed Street",4849172.403,1245884.662,-46.41808075,168.3917029
19,"Invercargill",3942,"Invercargill","Pacific Island Advisory and Cultural Trust Southland, 135 Bowmont Street",4848646.858,1243275.652,-46.4214234,168.3574624
19,"Invercargill",858,"Invercargill","Rosedale Gospel Chapel, corner Exmouth & Bourke Streets",4851408.992,1244491.902,-46.39728685,168.3753377
19,"Invercargill",3981,"Invercargill","Sacred Heart Parish Hall, 449 North Road",4854339.815,1242178.492,-46.36977777,168.3475828
19,"Invercargill",860,"Invercargill","Salford School Hall, corner Lamond & Salford Streets",4852446.987,1244366.414,-46.38790971,168.3744991
19,"Invercargill",4016,"Invercargill","Salvation Army Hall, corner Tay & Conon Streets",4849512.207,1242908.031,-46.41346708,168.3533549
19,"Invercargill",3303,"Invercargill","Southland Girls' High School Hall, 328 Tweed Street",4849120.722,1243841.277,-46.41747099,168.3651601
19,"Invercargill",863,"Invercargill","St Andrew's Youth Centre, 353 Elles Road, (entrance at 141 Manse Street)",4847460.158,1243610.772,-46.43224503,168.3609043
19,"Invercargill",865,"Invercargill","St John's Girls' School, 349 Dee Street",4851195.959,1242363.735,-46.39807618,168.347583
19,"Invercargill",873,"Invercargill","Waihopai School Hall, 121 Herbert Street",4851529.538,1242883.632,-46.39535856,168.3545781
19,"Invercargill",875,"Invercargill","Waverley Park School, 55 Eden Crescent",4851531.659,1245169.457,-46.39654216,168.3842156
19,"Invercargill",854,"Invercargill","Windsor Community Church (Presbyterian), 19 Windsor Street",4851390.333,1243762.043,-46.39707032,168.3658606
19,"Invercargill",876,"Kennington","Kennington Public Hall, 21 Rimu Road",4852096.256,1250056.069,-46.39402226,168.4479993
19,"Invercargill",330,"Lochiel","Lochiel School, corner Lochiel Bridge & Smith Roads",4872480.177,1240151.012,-46.20598548,168.3351745
19,"Invercargill",877,"Makarewa","Makarewa School, 56 Flora Road East",4858765.591,1241983.458,-46.32997512,168.3484319
19,"Invercargill",2910,"Mokoreta","Mokoreta-Redan Centennial Hall, 1725 Wyndham-Mokoreta Road",4854548.289,1293906.805,-46.39327672,169.0185033
19,"Invercargill",878,"Mokotua","Mokotua Public Hall, 12 Clearwater Road",4846149.63,1260298.116,-46.45260065,168.5764942
19,"Invercargill",3799,"Myross Bush","Myross Bush Community Hall, 238 Mill Road North",4853739.608,1247536.398,-46.3779721,168.4165669
19,"Invercargill",3275,"Orepuki","Orepuki and Districts Community Centre, 32 Oldham Street",4861086.656,1194657.695,-46.28255449,167.7380284
19,"Invercargill",3740,"Otatara","Otatara Community Centre, 146 Dunns Road",4847216.709,1238206.809,-46.43155712,168.2906127
19,"Invercargill",3094,"Riverton","Riverton Primary School Hall, corner Leader & Princess Streets",4854832.088,1216809.914,-46.35148952,168.0193663
19,"Invercargill",884,"Roslyn Bush","Roslyn Bush Playcentre, corner Kennington- Roslyn Bush Road & Lorne-Dacre Highway",4858258.767,1250161.569,-46.33879059,168.4539655
19,"Invercargill",360,"Ryal Bush","Ryal Bush Community Centre, 55 Ryal Bush School Road",4865209.981,1240220.326,-46.27123638,168.3305291
19,"Invercargill",361,"Seaward Downs","Seaward Downs Public Hall, 29 Mataura Island Road",4854472.557,1273444.962,-46.3843905,168.7530141
19,"Invercargill",833,"Stewart Island","Halfmoon Bay School, 6 Ayr Street",4794519.299,1228947.96,-46.89907605,168.1281573
19,"Invercargill",369,"Thornbury","Thornbury Primary School, 28 Muriel Street",4861928.093,1222265.038,-46.29092357,168.0957073
19,"Invercargill",885,"Tisbury","Tisbury School, 3 Boundary Road",4846220.669,1246686.378,-46.44497915,168.3998698
19,"Invercargill",370,"Tokanui","Tokanui School, 18 Duncan Street",4835392.626,1289347.43,-46.56316103,168.9465762
19,"Invercargill",886,"Waianiwa","Waianiwa School, 244 Argyle Otahuti Road",4862058.368,1234368.445,-46.29637997,168.2523951
19,"Invercargill",3276,"Waikawa","Waikawa Public Hall, Larne Street",4829512.32,1304117.247,-46.62262121,169.1350794
19,"Invercargill",3983,"Waimahaka","Waimahaka Community Centre, 15 Waimahaka-Fortification Road",4840130.362,1279022.412,-46.51578962,168.8154888
19,"Invercargill",888,"Wallacetown","Wallacetown School, 34 Mauchline Street",4858245.126,1237486.845,-46.33225472,168.2898069
19,"Invercargill",890,"Woodend","Woodend Hall, 3 Sommerville Street",4842868.781,1245879.15,-46.47462431,168.3868501
19,"Invercargill",891,"Woodlands","Woodlands Full Primary School, 8 Woodlands-Morton Mains Road",4856476.559,1258335.844,-46.35895129,168.5585617
19,"Invercargill",389,"Wyndham","Wyndham Primary School, 40 Florence Street",4861584.439,1279984.785,-46.32367824,168.842689
20,"Kaikōura",894,"Amberley","Amberley School, corner Douglas & Lawcocks Roads",5222262.386,1577455.632,-43.15205351,172.7227257
20,"Kaikōura",893,"Amberley","Hurunui District Council, 66 Carters Road",5222272.358,1577954.448,-43.15197842,172.728861
20,"Kaikōura",895,"Ashley","Ashley School, corner Boundary & Fawcetts Roads",5208670.618,1567238.782,-43.2740675,172.5962642
20,"Kaikōura",896,"Balcairn","Balcairn Hall, 4 Ashbys Road",5215835.804,1575368.082,-43.20985772,172.6967649
20,"Kaikōura",3478,"Blenheim","Alzheimers Centre, 8 Wither Road",5400914.575,1678426.404,-41.53958276,173.9402249
20,"Kaikōura",897,"Blenheim","Baptist Church Hall, corner Beaver Road & High Street",5404027.701,1679033.323,-41.51148567,173.9470911
20,"Kaikōura",898,"Blenheim","Bohally Intermediate School Hall, 37-49 McLauchlan Street",5404798.619,1678812.741,-41.50456435,173.9443472
20,"Kaikōura",899,"Blenheim","Bright Centre, 2 Dillons Point Road",5404343.578,1680193.352,-41.50852552,173.9609483
20,"Kaikōura",902,"Blenheim","Marlborough Boys' College Pavilion, 61 Francis Street",5403309.864,1679768.341,-41.51787777,173.9559931
20,"Kaikōura",4035,"Blenheim","Marlborough District Council Offices, 15 Seymour Street",5404043.89,1679670.149,-41.51127678,173.9547193
20,"Kaikōura",903,"Blenheim","Mayfield School Hall, 79 Hutcheson Street",5405289.414,1679678.586,-41.50005851,173.9546556
20,"Kaikōura",3597,"Blenheim","Nativity Anglican Church Hall, 76 Alfred Street",5404112.711,1679452.509,-41.51067858,173.9521025
20,"Kaikōura",905,"Blenheim","NMIT Marlborough Campus, E Block, Ballinger Drive",5404893.388,1680785.274,-41.50351437,173.9679665
20,"Kaikōura",3477,"Blenheim","Redwoodtown School, 90 Cleghorn Street",5401944.211,1679515.259,-41.53020224,173.9531409
20,"Kaikōura",909,"Blenheim","Springlands School Hall, corner Murphys Road & Aston Street",5404537.782,1677843.95,-41.50700824,173.9327742
20,"Kaikōura",911,"Blenheim","St Mark's Hobbies Room, 61 Main Street",5403857.631,1680746.168,-41.5128465,173.9676369
20,"Kaikōura",912,"Blenheim","St Ninian's Church Hall, corner Alabama Road & Riley Crescent",5402084.239,1678964.409,-41.52899566,173.9465204
20,"Kaikōura",908,"Blenheim","Whitney Street School Hall, Whitney Street",5403084.982,1679164.472,-41.51996303,173.9487865
20,"Kaikōura",913,"Blenheim","Witherlea School Hall, 216 Upper Weld Street",5400743.472,1679689.078,-41.54099898,173.9553833
20,"Kaikōura",914,"Broomfield","Broomfield School, 115 Mount Brown Road",5226115.157,1574422.951,-43.11726383,172.6856049
20,"Kaikōura",915,"Canvastown","Canvastown School, 5044 State Highway 6",5428964.398,1655944.448,-41.28882662,173.6681244
20,"Kaikōura",917,"Cheviot","Knox Church Hall, 13 Reeve Street",5259711.375,1622308.965,-42.81483182,173.2728835
20,"Kaikōura",919,"Culverden","Amuri Area School, School Road",5264590.595,1587585.508,-42.77111702,172.8482526
20,"Kaikōura",921,"Fairhall","Fairhall School Library, 384 New Renwick Road",5401950.727,1674813.429,-41.53059685,173.8967866
20,"Kaikōura",923,"Greta Valley","Greta Valley School, 8 Motunau Beach Road",5243082.303,1598194.435,-42.96490402,172.9778607
20,"Kaikōura",924,"Grovetown","Grovetown School, 50-62 Vickerman Street",5407354.813,1680889.503,-41.48133583,173.9688848
20,"Kaikōura",925,"Hanmer Springs","Hanmer Springs School, 8 Cheltenham Street",5292198.044,1586164.037,-42.52247079,172.8315496
20,"Kaikōura",926,"Hapuku","Hapuku School, 596 Kincaid Road (State Highway 1)",5312874.73,1658077.617,-42.33421341,173.7049705
20,"Kaikōura",927,"Havelock","Havelock School, 47 Main Road",5429726.695,1664220.334,-41.28134461,173.766872
20,"Kaikōura",3140,"Hawarden","Hurunui College, 2 Tenterden Street",5247582.035,1570378.901,-42.92380987,172.6370365
20,"Kaikōura",929,"Kaikoura","Kaikoura High School, corner Rorrisons & Ludstone Roads",5305541.707,1655505.221,-42.4004384,173.6744539
20,"Kaikōura",932,"Kaikoura","Kaikoura Suburban School, 425 Schoolhouse Road",5308756.089,1652555.797,-42.37169653,173.6383238
20,"Kaikōura",930,"Kaikoura","St John's Ambulance Hall, 116 Beach Road",5306771.808,1655952.703,-42.38932872,173.6797714
20,"Kaikōura",931,"Kaikoura","St Peter's Anglican Church Hall, 33 Torquay Street",5304585.906,1656272.798,-42.40899051,173.6838737
20,"Kaikōura",3998,"Koromiko","Sounds Air Check In, Picton Airport, Factory Road",5422616.462,1680202.608,-41.34395346,173.9586353
20,"Kaikōura",936,"Leithfield","Leithfield School, 64 Old Main North Road",5217185.174,1578878.851,-43.19781347,172.7400359
20,"Kaikōura",937,"Linkwater","Linkwater School, 1357 Queen Charlotte Drive",5428769.403,1673640.963,-41.28916241,173.8794701
20,"Kaikōura",938,"Loburn","Loburn School, 73 Hodgsons Road",5211299.839,1561831.756,-43.25013843,172.5298145
20,"Kaikōura",941,"Medbury","Medbury Hall, 447 Medbury Road",5252864.893,1574723.856,-42.87639354,172.6905148
20,"Kaikōura",943,"North Loburn","North Loburn School, 817 Loburn Whiterock Road",5216006.309,1558882.91,-43.20760453,172.4938405
20,"Kaikōura",944,"Oaro","Ocean View Motel, State Highway 1",5294760.632,1642592.13,-42.49834407,173.5183517
20,"Kaikōura",3171,"Okaramio","Okaramio Community Hall, 2356 State Highway 6",5414259.702,1663602.524,-41.42070307,173.7611161
20,"Kaikōura",946,"Omihi","Omihi School, 990 Omihi Road",5236716.471,1588073.694,-43.02213752,172.8536274
20,"Kaikōura",947,"Parnassus","Parnassus Community Hall, 82 Sisters Road",5271833.62,1624175.793,-42.70561008,173.2951996
20,"Kaikōura",3481,"Picton","Little Theatre, 9 Dublin Street",5428495.38,1684247.767,-41.29059302,174.0061641
20,"Kaikōura",949,"Picton","Picton School, York Street (between Buller Street & Broadway)",5428184.571,1683880.297,-41.29343056,174.0018189
20,"Kaikōura",948,"Picton","Queen Charlotte College, 173 Waikawa Road",5429683.568,1685684.258,-41.27974056,174.0231502
20,"Kaikōura",951,"Rai Valley","Rai Valley Area School, Community Library, 6700 Main Road",5435094.13,1648747.645,-41.23408063,173.58169
20,"Kaikōura",952,"Rapaura","Rapaura School Library, 349 Hammerichs Road",5408351.129,1675304.98,-41.4729066,173.9018779
20,"Kaikōura",3586,"Rarangi","Rarangi Community Centre, 252 Rarangi Beach Road",5416217.425,1687178.319,-41.40085958,174.0429211
20,"Kaikōura",954,"Renwick","Renwick Community Hall, 27 High Street",5404524.669,1669375.099,-41.50790456,173.8313076
20,"Kaikōura",955,"Riverlands","Riverlands School, 21 School Road",5402628.907,1682162.138,-41.52376849,173.9847708
20,"Kaikōura",956,"Rotherham","Rotherham School, 71 George Street",5272668.86,1595429.623,-42.69845508,172.9441996
20,"Kaikōura",3483,"Scargill","Scargill Memorial Hall, 10 Overton's Road",5246456.295,1595787.739,-42.93451115,172.9483759
20,"Kaikōura",958,"Seddon","Seddon School, 15 Redwood Street",5385744.455,1689311.397,-41.67505952,174.0729618
20,"Kaikōura",959,"Sefton","Sefton School, 603 Upper Sefton Road",5211735.354,1573443.621,-43.24671531,172.6728765
